{"type": "FeatureCollection", "features": [{"geometry": {"type": "Point", "coordinates": [-149.868307, 61.140133]}, "type": "Feature", "properties": {"store": "McDonalds [WM]-Anchorage,AK", "address": "8900 Old Seward Hwy [WM], Anchorage,AK, (907) 344-5831"}}, {"geometry": {"type": "Point", "coordinates": [-149.88113, 61.192426]}, "type": "Feature", "properties": {"store": "McDonalds [WM]-Anchorage,AK", "address": "3101 A St [WM], Anchorage,AK, (907) 561-5137"}}, {"geometry": {"type": "Point", "coordinates": [-149.898633, 61.194753]}, "type": "Feature", "properties": {"store": "McDonalds-Anchorage,AK", "address": "800 W Northern Lights Blvd, Anchorage,AK, (907) 561-5525"}}, {"geometry": {"type": "Point", "coordinates": [-149.870565, 61.188348]}, "type": "Feature", "properties": {"store": "McDonalds-Anchorage,AK", "address": "701 E 36th Ave, Anchorage,AK, (907) 563-0658"}}, {"geometry": {"type": "Point", "coordinates": [-149.863246, 61.139884]}, "type": "Feature", "properties": {"store": "McDonalds-Anchorage,AK", "address": "8915 Old Seward Hwy, Anchorage,AK, (907) 344-4231"}}, {"geometry": {"type": "Point", "coordinates": [-149.85796, 61.108444]}, "type": "Feature", "properties": {"store": "McDonalds-Anchorage,AK", "address": "1320 Huffman Rd, Anchorage,AK, (907) 345-5932"}}, {"geometry": {"type": "Point", "coordinates": [-149.832325, 61.181208]}, "type": "Feature", "properties": {"store": "McDonalds-Anchorage,AK", "address": "2601 E Tudor Rd, Anchorage,AK, (907) 562-2108"}}, {"geometry": {"type": "Point", "coordinates": [-149.823633, 61.219353]}, "type": "Feature", "properties": {"store": "McDonalds-Anchorage,AK", "address": "3006 Mountain View Dr, Anchorage,AK, (907) 274-5686"}}, {"geometry": {"type": "Point", "coordinates": [-149.775086, 61.209365]}, "type": "Feature", "properties": {"store": "McDonalds-Anchorage,AK", "address": "5716 Debarr Rd, Anchorage,AK, (907) 333-0413"}}, {"geometry": {"type": "Point", "coordinates": [-149.732706, 61.221371]}, "type": "Feature", "properties": {"store": "McDonalds-Anchorage,AK", "address": "255 Muldoon Rd, Anchorage,AK, (907) 337-0810"}}, {"geometry": {"type": "Point", "coordinates": [-149.979956, 61.173019]}, "type": "Feature", "properties": {"store": "McDonalds-Anchorage,AK", "address": "5000 W International Airport Rd, Anchorage,AK, (907) 243-0085"}}, {"geometry": {"type": "Point", "coordinates": [-149.950832, 61.137056]}, "type": "Feature", "properties": {"store": "McDonalds PlayPlace-Anchorage,AK", "address": "3828 W Dimond Blvd, Anchorage,AK, (907) 248-0597"}}, {"geometry": {"type": "Point", "coordinates": [-149.936781, 61.181524]}, "type": "Feature", "properties": {"store": "McDonalds PlayPlace-Anchorage,AK", "address": "4350 Spenard Rd, Anchorage,AK, (907) 243-5122"}}, {"geometry": {"type": "Point", "coordinates": [-149.835088, 61.138203]}, "type": "Feature", "properties": {"store": "McDonalds PlayPlace-Anchorage,AK", "address": "9100 Lake Otis Pky, Anchorage,AK, (907) 349-0285"}}, {"geometry": {"type": "Point", "coordinates": [-149.732719, 61.192846]}, "type": "Feature", "properties": {"store": "McDonalds PlayPlace-Anchorage,AK", "address": "3035 Muldoon Rd, Anchorage,AK, (907) 338-7377"}}, {"geometry": {"type": "Point", "coordinates": [-149.571145, 61.327034]}, "type": "Feature", "properties": {"store": "McDonalds PlayPlace-Eagle River,AK", "address": "11808 Old Glenn Hwy, Eagle River,AK, (907) 694-4500"}}, {"geometry": {"type": "Point", "coordinates": [-147.759108, 64.837296]}, "type": "Feature", "properties": {"store": "McDonalds PlayPlace-Fairbanks,AK", "address": "1930 Airport Way, Fairbanks,AK, (907) 452-4600"}}, {"geometry": {"type": "Point", "coordinates": [-147.696614, 64.859384]}, "type": "Feature", "properties": {"store": "McDonalds PlayPlace-Fairbanks,AK", "address": "449 Harold Bentley Ave, Fairbanks,AK, (907) 451-0770"}}, {"geometry": {"type": "Point", "coordinates": [-147.820117, 64.848734]}, "type": "Feature", "properties": {"store": "McDonalds PlayPlace-Fairbanks,AK", "address": "3905 Geist Rd, Fairbanks,AK, (907) 474-2010"}}, {"geometry": {"type": "Point", "coordinates": [-151.523064, 59.642696]}, "type": "Feature", "properties": {"store": "McDonalds-Homer,AK", "address": "3656 Ben Walters Ln, Homer,AK, (907) 235-5400"}}, {"geometry": {"type": "Point", "coordinates": [-151.235906, 60.559838]}, "type": "Feature", "properties": {"store": "McDonalds PlayPlace-Kenai,AK", "address": "10447 Kenai Spur Hwy, Kenai,AK, (907) 283-4008"}}, {"geometry": {"type": "Point", "coordinates": [-147.351417, 64.758068]}, "type": "Feature", "properties": {"store": "McDonalds PlayPlace-North Pole,AK", "address": "352 N Santa Claus Ln, North Pole,AK, (907) 488-7779"}}, {"geometry": {"type": "Point", "coordinates": [-149.123657, 61.599019]}, "type": "Feature", "properties": {"store": "McDonalds-Palmer,AK", "address": "600 W Daron Dr, Palmer,AK, (907) 746-0335"}}, {"geometry": {"type": "Point", "coordinates": [-151.071002, 60.48309]}, "type": "Feature", "properties": {"store": "McDonalds-Soldotna,AK", "address": "44420 Sterling Hwy, Soldotna,AK, (907) 262-1074"}}, {"geometry": {"type": "Point", "coordinates": [-149.364088, 61.569269]}, "type": "Feature", "properties": {"store": "McDonalds [WM]-Wasilla,AK", "address": "1350 S Seward Meridian [WM], Wasilla,AK, (907) 373-2523"}}, {"geometry": {"type": "Point", "coordinates": [-149.430898, 61.581432]}, "type": "Feature", "properties": {"store": "McDonalds PlayPlace-Wasilla,AK", "address": "801 E Parks Hwy, Wasilla,AK, (907) 376-4433"}}, {"geometry": {"type": "Point", "coordinates": [-86.96323, 33.61071]}, "type": "Feature", "properties": {"store": "McDonalds PlayPlace-Adamsville,AL", "address": "5721 Veterans Memorial Pkwy, Adamsville,AL, (205) 674-7288"}}, {"geometry": {"type": "Point", "coordinates": [-86.805218, 33.228322]}, "type": "Feature", "properties": {"store": "McDonalds-Alabaster,AL", "address": "205 S Colonial Dr, Alabaster,AL, (205) 621-2805"}}, {"geometry": {"type": "Point", "coordinates": [-86.81177, 33.26258]}, "type": "Feature", "properties": {"store": "McDonalds PlayPlace-Alabaster,AL", "address": "1499 1st St N, Alabaster,AL, (205) 664-3761"}}, {"geometry": {"type": "Point", "coordinates": [-86.20708, 34.2767]}, "type": "Feature", "properties": {"store": "McDonalds PlayPlace-Albertville,AL", "address": "7375 Us Hwy 431, Albertville,AL, (256) 878-6755"}}, {"geometry": {"type": "Point", "coordinates": [-85.95846, 32.92119]}, "type": "Feature", "properties": {"store": "McDonalds PlayPlace-Alexander City,AL", "address": "4094 Highway 280, Alexander City,AL, (256) 329-1283"}}, {"geometry": {"type": "Point", "coordinates": [-86.39416, 34.11883]}, "type": "Feature", "properties": {"store": "McDonalds-Altoona,AL", "address": "87134 Us Hwy 278, Altoona,AL, (205) 466-5211"}}, {"geometry": {"type": "Point", "coordinates": [-86.51839, 31.27594]}, "type": "Feature", "properties": {"store": "McDonalds-Andalusia,AL", "address": "315 W Byp, Andalusia,AL, (334) 222-7875"}}, {"geometry": {"type": "Point", "coordinates": [-85.82663, 33.66911]}, "type": "Feature", "properties": {"store": "McDonalds PlayPlace-Anniston,AL", "address": "1901 Quintard Ave, Anniston,AL, (256) 236-5224"}}, {"geometry": {"type": "Point", "coordinates": [-85.81804, 33.71946]}, "type": "Feature", "properties": {"store": "McDonalds PlayPlace-Anniston,AL", "address": "5550 Mcclellan Blvd, Anniston,AL, (256) 820-0038"}}, {"geometry": {"type": "Point", "coordinates": [-85.78884, 33.6291]}, "type": "Feature", "properties": {"store": "McDonalds PlayPlace-Anniston,AL", "address": "3424 Greenbrier Dear Dr, Anniston,AL, (256) 832-4543"}}, {"geometry": {"type": "Point", "coordinates": [-86.50283, 34.32584]}, "type": "Feature", "properties": {"store": "McDonalds PlayPlace-Arab,AL", "address": "700 N Brandlee Pkwy, Arab,AL, (256) 586-8792"}}, {"geometry": {"type": "Point", "coordinates": [-86.84025, 34.99181]}, "type": "Feature", "properties": {"store": "McDonalds PlayPlace-Ardmore,AL", "address": "26862 Main St, Ardmore,AL, (256) 423-3663"}}, {"geometry": {"type": "Point", "coordinates": [-85.82625, 33.27559]}, "type": "Feature", "properties": {"store": "McDonalds PlayPlace-Ashland,AL", "address": "83690 Hwy 9, Ashland,AL, (256) 354-2339"}}, {"geometry": {"type": "Point", "coordinates": [-86.95088, 34.80485]}, "type": "Feature", "properties": {"store": "McDonalds-Athens,AL", "address": "103 Us 31 N, Athens,AL, (256) 233-1275"}}, {"geometry": {"type": "Point", "coordinates": [-86.93826, 34.78282]}, "type": "Feature", "properties": {"store": "McDonalds PlayPlace-Athens,AL", "address": "1529 Us 72 E, Athens,AL, (256) 232-1927"}}, {"geometry": {"type": "Point", "coordinates": [-87.49385, 31.00651]}, "type": "Feature", "properties": {"store": "McDonalds PlayPlace-Atmore,AL", "address": "1414 S Main St, Atmore,AL, (251) 368-2267"}}, {"geometry": {"type": "Point", "coordinates": [-86.07735, 34.01812]}, "type": "Feature", "properties": {"store": "McDonalds PlayPlace-Attalla,AL", "address": "610 Cleveland Ave, Attalla,AL, (256) 538-1107"}}, {"geometry": {"type": "Point", "coordinates": [-85.48354, 32.60663]}, "type": "Feature", "properties": {"store": "McDonalds-Auburn,AL", "address": "224 West Magnolia Ave, Auburn,AL, (334) 821-7185"}}, {"geometry": {"type": "Point", "coordinates": [-85.5052, 32.56097]}, "type": "Feature", "properties": {"store": "McDonalds PlayPlace-Auburn,AL", "address": "2372 College St, Auburn,AL, (334) 502-8900"}}, {"geometry": {"type": "Point", "coordinates": [-85.44573, 32.62495]}, "type": "Feature", "properties": {"store": "McDonalds PlayPlace-Auburn,AL", "address": "1634 Opelika Hwy, Auburn,AL, (334) 821-5303"}}, {"geometry": {"type": "Point", "coordinates": [-87.78384, 30.87913]}, "type": "Feature", "properties": {"store": "McDonalds-Bay Minette,AL", "address": "98 McMeans Ave, Bay Minette,AL, (251) 937-2611"}}, {"geometry": {"type": "Point", "coordinates": [-86.92224, 33.33711]}, "type": "Feature", "properties": {"store": "McDonalds-Bessemer,AL", "address": "1195 Greenmor Dr, Bessemer,AL, (205) 425-6200"}}, {"geometry": {"type": "Point", "coordinates": [-86.9986, 33.36264]}, "type": "Feature", "properties": {"store": "McDonalds PlayPlace-Bessemer,AL", "address": "765 Academy Dr, Bessemer,AL, (205) 425-4727"}}, {"geometry": {"type": "Point", "coordinates": [-86.96937, 33.39583]}, "type": "Feature", "properties": {"store": "McDonalds PlayPlace-Bessemer,AL", "address": "911 9th Ave N, Bessemer,AL, (205) 428-9768"}}, {"geometry": {"type": "Point", "coordinates": [-86.603996, 33.620972]}, "type": "Feature", "properties": {"store": "McDonalds [WM]-Birmingham,AL", "address": "5919 Trussville Crossing [WM], Birmingham,AL, (205) 661-0225"}}, {"geometry": {"type": "Point", "coordinates": [-86.68185, 33.41874]}, "type": "Feature", "properties": {"store": "McDonalds [WM]-Birmingham,AL", "address": "Hwy US 280 [WM], Birmingham,AL, (205) 980-4948"}}, {"geometry": {"type": "Point", "coordinates": [-86.69884, 33.5886]}, "type": "Feature", "properties": {"store": "McDonalds [WM]-Birmingham,AL", "address": "9248 Parkway E [WM], Birmingham,AL, (205) 833-9665"}}, {"geometry": {"type": "Point", "coordinates": [-86.84708, 33.50003]}, "type": "Feature", "properties": {"store": "McDonalds-Birmingham,AL", "address": "732 Lomb Ave Sw, Birmingham,AL, (205) 787-6245"}}, {"geometry": {"type": "Point", "coordinates": [-86.8397, 33.48048]}, "type": "Feature", "properties": {"store": "McDonalds-Birmingham,AL", "address": "801 Dennison Ave, Birmingham,AL, (205) 323-5387"}}, {"geometry": {"type": "Point", "coordinates": [-86.82769, 33.54057]}, "type": "Feature", "properties": {"store": "McDonalds-Birmingham,AL", "address": "1700 Finley Blvd, Birmingham,AL, (205) 254-3646"}}, {"geometry": {"type": "Point", "coordinates": [-86.81908, 33.55394]}, "type": "Feature", "properties": {"store": "McDonalds-Birmingham,AL", "address": "3220 26th St N, Birmingham,AL, (205) 324-8945"}}, {"geometry": {"type": "Point", "coordinates": [-86.807791, 33.504646]}, "type": "Feature", "properties": {"store": "McDonalds-Birmingham,AL", "address": "1501 5th Ave S, Birmingham,AL, (205) 933-1650"}}, {"geometry": {"type": "Point", "coordinates": [-86.80019, 33.53363]}, "type": "Feature", "properties": {"store": "McDonalds-Birmingham,AL", "address": "3013 12th Ave N, Birmingham,AL, (205) 324-5005"}}, {"geometry": {"type": "Point", "coordinates": [-86.79087, 33.49071]}, "type": "Feature", "properties": {"store": "McDonalds-Birmingham,AL", "address": "2001 Montgomery Hwy, Birmingham,AL, (205) 930-9777"}}, {"geometry": {"type": "Point", "coordinates": [-86.78817, 33.50977]}, "type": "Feature", "properties": {"store": "McDonalds-Birmingham,AL", "address": "2733 8th Ave, Birmingham,AL, (205) 324-5892"}}, {"geometry": {"type": "Point", "coordinates": [-86.74863, 33.54354]}, "type": "Feature", "properties": {"store": "McDonalds-Birmingham,AL", "address": "5904 1st Ave N, Birmingham,AL, (205) 592-2671"}}, {"geometry": {"type": "Point", "coordinates": [-86.68365, 33.63668]}, "type": "Feature", "properties": {"store": "McDonalds-Birmingham,AL", "address": "1907 Center Point Rd, Birmingham,AL, (205) 854-4362"}}, {"geometry": {"type": "Point", "coordinates": [-86.89285, 33.56157]}, "type": "Feature", "properties": {"store": "McDonalds PlayPlace-Birmingham,AL", "address": "1309 Forestdale Blvd, Birmingham,AL, (205) 798-2896"}}, {"geometry": {"type": "Point", "coordinates": [-86.87868, 33.4953]}, "type": "Feature", "properties": {"store": "McDonalds PlayPlace-Birmingham,AL", "address": "2201 Bessemer Hwy, Birmingham,AL, (205) 780-5841"}}, {"geometry": {"type": "Point", "coordinates": [-86.73994, 33.38369]}, "type": "Feature", "properties": {"store": "McDonalds PlayPlace-Birmingham,AL", "address": "2640 Valleydale Rd, Birmingham,AL, (205) 408-7448"}}, {"geometry": {"type": "Point", "coordinates": [-86.7215, 33.52553]}, "type": "Feature", "properties": {"store": "McDonalds PlayPlace-Birmingham,AL", "address": "1569 Montclair Rd, Birmingham,AL, (205) 956-9666"}}, {"geometry": {"type": "Point", "coordinates": [-86.811501, 33.52029]}, "type": "Feature", "properties": {"store": "McDonalds PlayPlace-Birmingham,AL", "address": "4625 Hwy 280 S, Birmingham,AL, (205) 991-3086"}}, {"geometry": {"type": "Point", "coordinates": [-86.69656, 33.58819]}, "type": "Feature", "properties": {"store": "McDonalds PlayPlace-Birmingham,AL", "address": "200 Gadsden Rd, Birmingham,AL, (205) 833-5149"}}, {"geometry": {"type": "Point", "coordinates": [-86.15069, 34.19869]}, "type": "Feature", "properties": {"store": "McDonalds PlayPlace-Boaz,AL", "address": "861 Us Hwy 431 S, Boaz,AL, (256) 593-1015"}}, {"geometry": {"type": "Point", "coordinates": [-87.07977, 31.09949]}, "type": "Feature", "properties": {"store": "McDonalds PlayPlace-Brewton,AL", "address": "464 South Blvd, Brewton,AL, (251) 867-4540"}}, {"geometry": {"type": "Point", "coordinates": [-86.952764, 33.42752]}, "type": "Feature", "properties": {"store": "McDonalds-Brighton,AL", "address": "3633 Jaybird Rd, Brighton,AL, (205) 428-3837"}}, {"geometry": {"type": "Point", "coordinates": [-86.74985, 33.14685]}, "type": "Feature", "properties": {"store": "McDonalds PlayPlace-Calera,AL", "address": "706 Supercenter Dr, Calera,AL, (205) 668-7588"}}, {"geometry": {"type": "Point", "coordinates": [-85.66817, 34.16015]}, "type": "Feature", "properties": {"store": "McDonalds PlayPlace-Centre,AL", "address": "650 Cedar Bluff Rd, Centre,AL, (256) 927-4200"}}, {"geometry": {"type": "Point", "coordinates": [-87.14207, 32.94485]}, "type": "Feature", "properties": {"store": "McDonalds PlayPlace-Centreville,AL", "address": "187 Walnut St, Centreville,AL, (205) 926-6186"}}, {"geometry": {"type": "Point", "coordinates": [-86.63385, 33.34814]}, "type": "Feature", "properties": {"store": "McDonalds PlayPlace-Chelsea,AL", "address": "16758 Us Hwy 280, Chelsea,AL, (205) 678-0505"}}, {"geometry": {"type": "Point", "coordinates": [-86.35069, 33.26488]}, "type": "Feature", "properties": {"store": "McDonalds PlayPlace-Childersburg,AL", "address": "33785 Us Hwy 280, Childersburg,AL, (256) 378-5977"}}, {"geometry": {"type": "Point", "coordinates": [-86.60887, 32.81881]}, "type": "Feature", "properties": {"store": "McDonalds-Clanton,AL", "address": "1415 7th St S, Clanton,AL, (205) 280-0159"}}, {"geometry": {"type": "Point", "coordinates": [-86.57607, 32.8011]}, "type": "Feature", "properties": {"store": "McDonalds PlayPlace-Clanton,AL", "address": "2250 7th St S, Clanton,AL, (205) 755-8411"}}, {"geometry": {"type": "Point", "coordinates": [-86.615891, 33.179848]}, "type": "Feature", "properties": {"store": "McDonalds PlayPlace-Columbiana,AL", "address": "301 W College St, Columbiana,AL, (205) 669-7710"}}, {"geometry": {"type": "Point", "coordinates": [-87.44804, 33.17606]}, "type": "Feature", "properties": {"store": "McDonalds PlayPlace-Cottondale,AL", "address": "6501 Interstate Ln, Cottondale,AL, (205) 507-0700"}}, {"geometry": {"type": "Point", "coordinates": [-86.87543, 34.20702]}, "type": "Feature", "properties": {"store": "McDonalds-Cullman,AL", "address": "6065 Al Highway 157, Cullman,AL, (256) 734-4258"}}, {"geometry": {"type": "Point", "coordinates": [-86.83668, 34.1629]}, "type": "Feature", "properties": {"store": "McDonalds-Cullman,AL", "address": "1425 2nd Ave Sw, Cullman,AL, (256) 734-4073"}}, {"geometry": {"type": "Point", "coordinates": [-85.73031, 32.82105]}, "type": "Feature", "properties": {"store": "McDonalds PlayPlace-Dadeville,AL", "address": "17956 Highway 280, Dadeville,AL, (256) 825-8744"}}, {"geometry": {"type": "Point", "coordinates": [-85.71279, 31.30934]}, "type": "Feature", "properties": {"store": "McDonalds-Daleville,AL", "address": "575 N Daleville Ave, Daleville,AL, (334) 598-6072"}}, {"geometry": {"type": "Point", "coordinates": [-87.91231, 30.6496]}, "type": "Feature", "properties": {"store": "McDonalds-Daphne,AL", "address": "29138 Us 98, Daphne,AL, (251) 621-3596"}}, {"geometry": {"type": "Point", "coordinates": [-87.901512, 30.603901]}, "type": "Feature", "properties": {"store": "McDonalds-Daphne,AL", "address": "29919 Woodrow Lane, Daphne,AL, (251) 626-9909"}}, {"geometry": {"type": "Point", "coordinates": [-87.01302, 34.57255]}, "type": "Feature", "properties": {"store": "McDonalds-Decatur,AL", "address": "2225 Danville Rd Sw, Decatur,AL, (256) 350-7083"}}, {"geometry": {"type": "Point", "coordinates": [-86.98017, 34.5892]}, "type": "Feature", "properties": {"store": "McDonalds-Decatur,AL", "address": "1208 6th Ave Se, Decatur,AL, (256) 353-8911"}}, {"geometry": {"type": "Point", "coordinates": [-86.9087, 34.5359]}, "type": "Feature", "properties": {"store": "McDonalds PlayPlace-Decatur,AL", "address": "3342 Point Mallard Pky Se, Decatur,AL, (256) 584-6886"}}, {"geometry": {"type": "Point", "coordinates": [-87.83765, 32.50487]}, "type": "Feature", "properties": {"store": "McDonalds PlayPlace-Demopolis,AL", "address": "1111 Walnut St, Demopolis,AL, (334) 289-3069"}}, {"geometry": {"type": "Point", "coordinates": [-86.883972, 34.041569]}, "type": "Feature", "properties": {"store": "McDonalds-Dodge City,AL", "address": "231 Hwy 69 S, Dodge City,AL, (256) 287-9543"}}, {"geometry": {"type": "Point", "coordinates": [-87.065994, 33.759327]}, "type": "Feature", "properties": {"store": "McDonalds PlayPlace-Dora,AL", "address": "2445 Hwy 78, Dora,AL, (205) 648-3673"}}, {"geometry": {"type": "Point", "coordinates": [-85.4002, 31.22511]}, "type": "Feature", "properties": {"store": "McDonalds-Dothan,AL", "address": "619 W Main St, Dothan,AL, (334) 793-1625"}}, {"geometry": {"type": "Point", "coordinates": [-85.39758, 31.18968]}, "type": "Feature", "properties": {"store": "McDonalds-Dothan,AL", "address": "2101 Ross Clark Cir, Dothan,AL, (334) 794-0221"}}, {"geometry": {"type": "Point", "coordinates": [-85.36078, 31.21709]}, "type": "Feature", "properties": {"store": "McDonalds-Dothan,AL", "address": "1081 Ross Clark Cir, Dothan,AL, (334) 677-0779"}}, {"geometry": {"type": "Point", "coordinates": [-85.42768, 31.24592]}, "type": "Feature", "properties": {"store": "McDonalds PlayPlace-Dothan,AL", "address": "3520 Ross Clark Cir, Dothan,AL, (334) 792-0313"}}, {"geometry": {"type": "Point", "coordinates": [-85.38914, 31.25415]}, "type": "Feature", "properties": {"store": "McDonalds PlayPlace-Dothan,AL", "address": "2251 Reeves St, Dothan,AL, (334) 702-8338"}}, {"geometry": {"type": "Point", "coordinates": [-86.90779, 33.49959]}, "type": "Feature", "properties": {"store": "McDonalds PlayPlace-Ensley,AL", "address": "3520 Avenue E, Ensley,AL, (205) 780-4146"}}, {"geometry": {"type": "Point", "coordinates": [-85.86459, 31.33361]}, "type": "Feature", "properties": {"store": "McDonalds [WM]-Enterprise,AL", "address": "600 Boll Weevil Circle [WM], Enterprise,AL, (334) 393-6679"}}, {"geometry": {"type": "Point", "coordinates": [-85.86223, 31.33399]}, "type": "Feature", "properties": {"store": "McDonalds PlayPlace-Enterprise,AL", "address": "652 US Hwy 84 Byp, Enterprise,AL, (334) 347-3417"}}, {"geometry": {"type": "Point", "coordinates": [-85.15626, 31.87114]}, "type": "Feature", "properties": {"store": "McDonalds PlayPlace-Eufaula,AL", "address": "1250 S Eufaula Ave, Eufaula,AL, (334) 687-6686"}}, {"geometry": {"type": "Point", "coordinates": [-86.897, 31.4491]}, "type": "Feature", "properties": {"store": "McDonalds-Evergreen,AL", "address": "Route 2 Box 294, Evergreen,AL, (251) 578-3797"}}, {"geometry": {"type": "Point", "coordinates": [-87.8863, 30.52552]}, "type": "Feature", "properties": {"store": "McDonalds-Fairhope,AL", "address": "111 N Greeno Rd, Fairhope,AL, (251) 990-8833"}}, {"geometry": {"type": "Point", "coordinates": [-87.852127, 30.523479]}, "type": "Feature", "properties": {"store": "McDonalds-Fairhope,AL", "address": "10040 Country Rd 48, Fairhope,AL, (251) 990-7882"}}, {"geometry": {"type": "Point", "coordinates": [-86.894122, 34.36811]}, "type": "Feature", "properties": {"store": "McDonalds-Falkville,AL", "address": "64 E Pike Road, Falkville,AL, (256) 784-9661"}}, {"geometry": {"type": "Point", "coordinates": [-87.82667, 33.70342]}, "type": "Feature", "properties": {"store": "McDonalds PlayPlace-Fayette,AL", "address": "1421 Temple Ave N, Fayette,AL, (205) 932-8882"}}, {"geometry": {"type": "Point", "coordinates": [-87.69026, 34.8485]}, "type": "Feature", "properties": {"store": "McDonalds-Florence,AL", "address": "3183 Cloverdale Rd, Florence,AL, (256) 740-6797"}}, {"geometry": {"type": "Point", "coordinates": [-87.68051, 34.81668]}, "type": "Feature", "properties": {"store": "McDonalds-Florence,AL", "address": "1155 N Wood Ave, Florence,AL, (256) 766-9550"}}, {"geometry": {"type": "Point", "coordinates": [-87.63136, 34.83678]}, "type": "Feature", "properties": {"store": "McDonalds-Florence,AL", "address": "306 Cox Creek Pwky, Florence,AL, (256) 764-2800"}}, {"geometry": {"type": "Point", "coordinates": [-87.65596, 34.82007]}, "type": "Feature", "properties": {"store": "McDonalds PlayPlace-Florence,AL", "address": "1505 Florence Blvd, Florence,AL, (256) 766-4341"}}, {"geometry": {"type": "Point", "coordinates": [-87.68354, 30.38288]}, "type": "Feature", "properties": {"store": "McDonalds [WM]-Foley,AL", "address": "2200 S McKenzie St [WM], Foley,AL, (251) 943-1717"}}, {"geometry": {"type": "Point", "coordinates": [-87.68345, 30.39556]}, "type": "Feature", "properties": {"store": "McDonalds PlayPlace-Foley,AL", "address": "1010 S McKenzie St, Foley,AL, (251) 943-6960"}}, {"geometry": {"type": "Point", "coordinates": [-85.73339, 34.43265]}, "type": "Feature", "properties": {"store": "McDonalds PlayPlace-Fort Payne,AL", "address": "205 Glenn Blvd Sw, Fort Payne,AL, (256) 845-0127"}}, {"geometry": {"type": "Point", "coordinates": [-86.806039, 33.608079]}, "type": "Feature", "properties": {"store": "McDonalds-Fultondale,AL", "address": "239 Howell St, Fultondale,AL, (205) 841-0002"}}, {"geometry": {"type": "Point", "coordinates": [-86.02071, 34.0218]}, "type": "Feature", "properties": {"store": "McDonalds-Gadsden,AL", "address": "200 N 12th St, Gadsden,AL, (256) 547-0393"}}, {"geometry": {"type": "Point", "coordinates": [-86.00417, 33.99859]}, "type": "Feature", "properties": {"store": "McDonalds PlayPlace-Gadsden,AL", "address": "952 Rainbow Dr, Gadsden,AL, (256) 547-0284"}}, {"geometry": {"type": "Point", "coordinates": [-86.82485, 33.64791]}, "type": "Feature", "properties": {"store": "McDonalds [WM]-Gardendale,AL", "address": "890 Odum Rd [WM], Gardendale,AL, (205) 608-1877"}}, {"geometry": {"type": "Point", "coordinates": [-86.80991, 33.65229]}, "type": "Feature", "properties": {"store": "McDonalds PlayPlace-Gardendale,AL", "address": "1017 Decatur Hwy, Gardendale,AL, (205) 631-5459"}}, {"geometry": {"type": "Point", "coordinates": [-85.89048, 31.04801]}, "type": "Feature", "properties": {"store": "McDonalds-Geneva,AL", "address": "1205 W Maple Ave, Geneva,AL, (334) 684-6409"}}, {"geometry": {"type": "Point", "coordinates": [-85.94155, 33.96533]}, "type": "Feature", "properties": {"store": "McDonalds PlayPlace-Glencoe,AL", "address": "616 Chastain Blvd W, Glencoe,AL, (256) 492-7682"}}, {"geometry": {"type": "Point", "coordinates": [-88.335, 30.499005]}, "type": "Feature", "properties": {"store": "McDonalds-Grand Bay,AL", "address": "9200 Grand Bay Wilmer Rd, Grand Bay,AL, (251) 865-2088"}}, {"geometry": {"type": "Point", "coordinates": [-87.59289, 32.69857]}, "type": "Feature", "properties": {"store": "McDonalds PlayPlace-Greensboro,AL", "address": "1401 State St, Greensboro,AL, (334) 624-5600"}}, {"geometry": {"type": "Point", "coordinates": [-86.62656, 31.84747]}, "type": "Feature", "properties": {"store": "McDonalds PlayPlace-Greenville,AL", "address": "112 Greenville Byp, Greenville,AL, (334) 382-2007"}}, {"geometry": {"type": "Point", "coordinates": [-87.68707, 30.27394]}, "type": "Feature", "properties": {"store": "McDonalds PlayPlace-Gulf Shores,AL", "address": "2000 Gulfshores Pky, Gulf Shores,AL, (251) 967-3700"}}, {"geometry": {"type": "Point", "coordinates": [-86.30841, 34.34159]}, "type": "Feature", "properties": {"store": "McDonalds PlayPlace-Guntersville,AL", "address": "1745 Gunter Ave, Guntersville,AL, (256) 582-2805"}}, {"geometry": {"type": "Point", "coordinates": [-87.62164, 34.22679]}, "type": "Feature", "properties": {"store": "McDonalds PlayPlace-Haleyville,AL", "address": "2006 11th Ave, Haleyville,AL, (205) 486-5859"}}, {"geometry": {"type": "Point", "coordinates": [-87.98852, 34.14236]}, "type": "Feature", "properties": {"store": "McDonalds PlayPlace-Hamilton,AL", "address": "Hwy 78 Military St S, Hamilton,AL, (205) 921-4323"}}, {"geometry": {"type": "Point", "coordinates": [-86.77715, 34.07177]}, "type": "Feature", "properties": {"store": "McDonalds-Hanceville,AL", "address": "740 N Main St, Hanceville,AL, (256) 352-2120"}}, {"geometry": {"type": "Point", "coordinates": [-86.94225, 34.4419]}, "type": "Feature", "properties": {"store": "McDonalds-Hartselle,AL", "address": "201 Highway 31 S, Hartselle,AL, (256) 773-7760"}}, {"geometry": {"type": "Point", "coordinates": [-86.57167, 34.9329]}, "type": "Feature", "properties": {"store": "McDonalds PlayPlace-Hazel Green,AL", "address": "14267 Us 231, Hazel Green,AL, (256) 828-2846"}}, {"geometry": {"type": "Point", "coordinates": [-86.85214, 33.28043]}, "type": "Feature", "properties": {"store": "McDonalds PlayPlace-Helena,AL", "address": "7210 Wyndham Pky, Helena,AL, (205) 620-6679"}}, {"geometry": {"type": "Point", "coordinates": [-86.82125, 33.45143]}, "type": "Feature", "properties": {"store": "McDonalds PlayPlace-Homewood,AL", "address": "124 State Farm Pky, Homewood,AL, (205) 917-3700"}}, {"geometry": {"type": "Point", "coordinates": [-86.818177, 33.46043]}, "type": "Feature", "properties": {"store": "McDonalds PlayPlace-Homewood,AL", "address": "818 Green Springs Rd, Homewood,AL, (205) 942-5681"}}, {"geometry": {"type": "Point", "coordinates": [-86.735138, 34.856041]}, "type": "Feature", "properties": {"store": "McDonalds [WM]-Hoover,AL", "address": "2780 John Hawkins Pkwy[WM], Hoover,AL, (205) 982-1700"}}, {"geometry": {"type": "Point", "coordinates": [-86.81104, 33.37859]}, "type": "Feature", "properties": {"store": "McDonalds-Hoover,AL", "address": "2000 Riverchase Galleria, Hoover,AL, (205) 444-1405"}}, {"geometry": {"type": "Point", "coordinates": [-86.80634, 33.40702]}, "type": "Feature", "properties": {"store": "McDonalds PlayPlace-Hoover,AL", "address": "1547 Montgomery Hwy, Hoover,AL, (205) 979-2386"}}, {"geometry": {"type": "Point", "coordinates": [-86.80488, 33.37999]}, "type": "Feature", "properties": {"store": "McDonalds PlayPlace-Hoover,AL", "address": "1731 Montgomery Hwy S, Hoover,AL, (205) 987-8263"}}, {"geometry": {"type": "Point", "coordinates": [-86.99437, 33.442429]}, "type": "Feature", "properties": {"store": "McDonalds [WM]-Hueytown,AL", "address": "1007 Red Farmer Rd [WM], Hueytown,AL, (205) 744-9002"}}, {"geometry": {"type": "Point", "coordinates": [-86.98547, 33.45089]}, "type": "Feature", "properties": {"store": "McDonalds PlayPlace-Hueytown,AL", "address": "3069 Allison Bonnett Memorial Dr, Hueytown,AL, (205) 491-5951"}}, {"geometry": {"type": "Point", "coordinates": [-86.6746, 34.74357]}, "type": "Feature", "properties": {"store": "McDonalds-Huntsville,AL", "address": "6100 University Dr NW, Huntsville,AL, (256) 895-0143"}}, {"geometry": {"type": "Point", "coordinates": [-86.62762, 34.73516]}, "type": "Feature", "properties": {"store": "McDonalds-Huntsville,AL", "address": "4002 University Dr, Huntsville,AL, (256) 837-3970"}}, {"geometry": {"type": "Point", "coordinates": [-86.590453, 34.708824]}, "type": "Feature", "properties": {"store": "McDonalds-Huntsville,AL", "address": "2704 S Memorial Parkway, Huntsville,AL, (256) 535-6064"}}, {"geometry": {"type": "Point", "coordinates": [-86.57852, 34.79073]}, "type": "Feature", "properties": {"store": "McDonalds-Huntsville,AL", "address": "4965 N Memorial Pky, Huntsville,AL, (256) 859-9001"}}, {"geometry": {"type": "Point", "coordinates": [-86.57458, 34.7195]}, "type": "Feature", "properties": {"store": "McDonalds-Huntsville,AL", "address": "310 Governors Dr Se, Huntsville,AL, (256) 534-1031"}}, {"geometry": {"type": "Point", "coordinates": [-86.48648, 34.8204]}, "type": "Feature", "properties": {"store": "McDonalds-Huntsville,AL", "address": "2234 Winchester Rd Ne, Huntsville,AL, (256) 382-2342"}}, {"geometry": {"type": "Point", "coordinates": [-86.59232, 34.75792]}, "type": "Feature", "properties": {"store": "McDonalds PlayPlace-Huntsville,AL", "address": "2600 Memorial Pky Nw, Huntsville,AL, (256) 852-5730"}}, {"geometry": {"type": "Point", "coordinates": [-86.5684, 34.69376]}, "type": "Feature", "properties": {"store": "McDonalds PlayPlace-Huntsville,AL", "address": "4810 Whitesburg Dr S, Huntsville,AL, (256) 880-3763"}}, {"geometry": {"type": "Point", "coordinates": [-86.56644, 34.64399]}, "type": "Feature", "properties": {"store": "McDonalds PlayPlace-Huntsville,AL", "address": "10031 S Memorial Pky, Huntsville,AL, (256) 883-9050"}}, {"geometry": {"type": "Point", "coordinates": [-86.52631, 34.77308]}, "type": "Feature", "properties": {"store": "McDonalds PlayPlace-Huntsville,AL", "address": "1795 Us 72 E, Huntsville,AL, (256) 859-1630"}}, {"geometry": {"type": "Point", "coordinates": [-86.69401, 33.53329]}, "type": "Feature", "properties": {"store": "McDonalds PlayPlace-Irondale,AL", "address": "734 Grants Mill Rd, Irondale,AL, (205) 956-3312"}}, {"geometry": {"type": "Point", "coordinates": [-88.246094, 30.428543]}, "type": "Feature", "properties": {"store": "McDonalds-Irvington,AL", "address": "8660 Hwy 188, Irvington,AL, (251) 824-1810"}}, {"geometry": {"type": "Point", "coordinates": [-87.88919, 31.53514]}, "type": "Feature", "properties": {"store": "McDonalds PlayPlace-Jackson,AL", "address": "2425 College Ave, Jackson,AL, (251) 246-5044"}}, {"geometry": {"type": "Point", "coordinates": [-85.76141, 33.81646]}, "type": "Feature", "properties": {"store": "McDonalds-Jacksonville,AL", "address": "312 Pelham Rd N, Jacksonville,AL, (256) 435-1354"}}, {"geometry": {"type": "Point", "coordinates": [-87.25401, 33.84472]}, "type": "Feature", "properties": {"store": "McDonalds [WM]-Jasper,AL", "address": "1801 Highway 78 E[WM], Jasper,AL, (205) 302-0010"}}, {"geometry": {"type": "Point", "coordinates": [-87.26926, 33.8488]}, "type": "Feature", "properties": {"store": "McDonalds PlayPlace-Jasper,AL", "address": "600 Hwy 78 East, Jasper,AL, (205) 221-9777"}}, {"geometry": {"type": "Point", "coordinates": [-86.74355, 32.95955]}, "type": "Feature", "properties": {"store": "McDonalds PlayPlace-Jemison,AL", "address": "24712 Us Hwy 31, Jemison,AL, (205) 688-1141"}}, {"geometry": {"type": "Point", "coordinates": [-87.55506, 34.85576]}, "type": "Feature", "properties": {"store": "McDonalds-Killen,AL", "address": "1001 Hwy 72, Killen,AL, (256) 757-4040"}}, {"geometry": {"type": "Point", "coordinates": [-86.52365, 33.55922]}, "type": "Feature", "properties": {"store": "McDonalds PlayPlace-Leeds,AL", "address": "1724 Ashville Rd NE, Leeds,AL, (205) 699-7080"}}, {"geometry": {"type": "Point", "coordinates": [-86.12521, 33.58746]}, "type": "Feature", "properties": {"store": "McDonalds PlayPlace-Lincoln,AL", "address": "75280 Al Highway 77, Lincoln,AL, (205) 763-0930"}}, {"geometry": {"type": "Point", "coordinates": [-87.76073, 30.6421]}, "type": "Feature", "properties": {"store": "McDonalds-Loxley,AL", "address": "12593 N Hickory St, Loxley,AL, (251) 964-4155"}}, {"geometry": {"type": "Point", "coordinates": [-86.2665, 31.7441]}, "type": "Feature", "properties": {"store": "McDonalds PlayPlace-Luverne,AL", "address": "US Hwy 331, Luverne,AL, (334) 335-5235"}}, {"geometry": {"type": "Point", "coordinates": [-86.74937, 34.75208]}, "type": "Feature", "properties": {"store": "McDonalds PlayPlace-Madison,AL", "address": "8005 Us 72 W, Madison,AL, (256) 722-9584"}}, {"geometry": {"type": "Point", "coordinates": [-86.74903, 34.67751]}, "type": "Feature", "properties": {"store": "McDonalds PlayPlace-Madison,AL", "address": "8841 Madison Blvd, Madison,AL, (256) 772-0099"}}, {"geometry": {"type": "Point", "coordinates": [-86.99999, 33.33018]}, "type": "Feature", "properties": {"store": "McDonalds PlayPlace-McCalla,AL", "address": "4746 Eastern Valley Rd, McCalla,AL, (205) 477-1003"}}, {"geometry": {"type": "Point", "coordinates": [-86.9219, 33.45682]}, "type": "Feature", "properties": {"store": "McDonalds-Midfield,AL", "address": "11 Phillips Dr, Midfield,AL, (205) 923-9802"}}, {"geometry": {"type": "Point", "coordinates": [-86.37408, 32.5179]}, "type": "Feature", "properties": {"store": "McDonalds-Millbrook,AL", "address": "Hwy 143 & Deatsville Rd, Millbrook,AL, (334) 285-6112"}}, {"geometry": {"type": "Point", "coordinates": [-86.372022, 32.519107]}, "type": "Feature", "properties": {"store": "McDonalds PlayPlace-Millbrook,AL", "address": "3755 Hwy 14, Millbrook,AL, (334) 285-4554"}}, {"geometry": {"type": "Point", "coordinates": [-88.224823, 30.640946]}, "type": "Feature", "properties": {"store": "McDonalds-Mobile,AL", "address": "2415 Schillinger Rd S, Mobile,AL, (251) 634-1378"}}, {"geometry": {"type": "Point", "coordinates": [-88.19085, 30.66001]}, "type": "Feature", "properties": {"store": "McDonalds-Mobile,AL", "address": "1400 Hillcrest Rd, Mobile,AL, (251) 607-0014"}}, {"geometry": {"type": "Point", "coordinates": [-88.17148, 30.68937]}, "type": "Feature", "properties": {"store": "McDonalds-Mobile,AL", "address": "5601 Old Shell Rd, Mobile,AL, (251) 342-8172"}}, {"geometry": {"type": "Point", "coordinates": [-88.12365, 30.68865]}, "type": "Feature", "properties": {"store": "McDonalds-Mobile,AL", "address": "2 Springdale Blvd, Mobile,AL, (251) 471-1508"}}, {"geometry": {"type": "Point", "coordinates": [-88.12353, 30.67623]}, "type": "Feature", "properties": {"store": "McDonalds-Mobile,AL", "address": "3424 Bel Air Mall, Mobile,AL, (251) 471-4636"}}, {"geometry": {"type": "Point", "coordinates": [-88.11351, 30.7007]}, "type": "Feature", "properties": {"store": "McDonalds-Mobile,AL", "address": "3119 Mofft Rd, Mobile,AL, (251) 473-3160"}}, {"geometry": {"type": "Point", "coordinates": [-88.08391, 30.72131]}, "type": "Feature", "properties": {"store": "McDonalds-Mobile,AL", "address": "2291 St Stephens Rd, Mobile,AL, (251) 452-1207"}}, {"geometry": {"type": "Point", "coordinates": [-88.04988, 30.68756]}, "type": "Feature", "properties": {"store": "McDonalds-Mobile,AL", "address": "658 Government Blvd, Mobile,AL, (251) 433-8573"}}, {"geometry": {"type": "Point", "coordinates": [-88.126536, 30.68458]}, "type": "Feature", "properties": {"store": "McDonalds-Mobile,AL", "address": "101 S Beltline Hwy, Mobile,AL, (251) 471-9003"}}, {"geometry": {"type": "Point", "coordinates": [-88.053238, 30.68639]}, "type": "Feature", "properties": {"store": "McDonalds-Mobile,AL", "address": "7749 Moffet Rd, Mobile,AL, (251) 649-2215"}}, {"geometry": {"type": "Point", "coordinates": [-88.248045, 30.640942]}, "type": "Feature", "properties": {"store": "McDonalds-Mobile,AL", "address": "2418 Dawes Rd, Mobile,AL, (251) 633-6147"}}, {"geometry": {"type": "Point", "coordinates": [-88.22533, 30.68694]}, "type": "Feature", "properties": {"store": "McDonalds PlayPlace-Mobile,AL", "address": "281 Schillinger Rd, Mobile,AL, (251) 633-7766"}}, {"geometry": {"type": "Point", "coordinates": [-88.16204, 30.64808]}, "type": "Feature", "properties": {"store": "McDonalds PlayPlace-Mobile,AL", "address": "5019 Cottage Hill Rd, Mobile,AL, (251) 661-5998"}}, {"geometry": {"type": "Point", "coordinates": [-88.15753, 30.72009]}, "type": "Feature", "properties": {"store": "McDonalds PlayPlace-Mobile,AL", "address": "5003 Moffet Road, Mobile,AL, (251) 342-1560"}}, {"geometry": {"type": "Point", "coordinates": [-88.14957, 30.67091]}, "type": "Feature", "properties": {"store": "McDonalds PlayPlace-Mobile,AL", "address": "367 Azalea Rd, Mobile,AL, (251) 344-5076"}}, {"geometry": {"type": "Point", "coordinates": [-88.10677, 30.66499]}, "type": "Feature", "properties": {"store": "McDonalds PlayPlace-Mobile,AL", "address": "2692 Government Blvd, Mobile,AL, (251) 471-5014"}}, {"geometry": {"type": "Point", "coordinates": [-88.07473, 30.60945]}, "type": "Feature", "properties": {"store": "McDonalds PlayPlace-Mobile,AL", "address": "3116 Dauphin Island Pwky, Mobile,AL, (251) 478-5390"}}, {"geometry": {"type": "Point", "coordinates": [-87.31923, 31.50744]}, "type": "Feature", "properties": {"store": "McDonalds PlayPlace-Monroeville,AL", "address": "1511 S Alabama Ave, Monroeville,AL, (251) 575-2929"}}, {"geometry": {"type": "Point", "coordinates": [-86.86107, 33.10177]}, "type": "Feature", "properties": {"store": "McDonalds-Montevallo,AL", "address": "907 Main St, Montevallo,AL, (205) 665-1335"}}, {"geometry": {"type": "Point", "coordinates": [-86.18358, 32.38263]}, "type": "Feature", "properties": {"store": "McDonalds [WM]-Montgomery,AL", "address": "6493 Atlanta Hwy [WM], Montgomery,AL, (334) 274-0840"}}, {"geometry": {"type": "Point", "coordinates": [-86.2337, 32.32875]}, "type": "Feature", "properties": {"store": "McDonalds [WM]-Montgomery,AL", "address": "3801 Eastern Blvd [WM], Montgomery,AL, (334) 280-5727"}}, {"geometry": {"type": "Point", "coordinates": [-86.34546, 32.36932]}, "type": "Feature", "properties": {"store": "McDonalds-Montgomery,AL", "address": "3450 Day St, Montgomery,AL, (334) 834-4310"}}, {"geometry": {"type": "Point", "coordinates": [-86.21828, 32.35553]}, "type": "Feature", "properties": {"store": "McDonalds-Montgomery,AL", "address": "1590 Eastern Blvd, Montgomery,AL, (334) 272-8908"}}, {"geometry": {"type": "Point", "coordinates": [-86.17959, 32.33956]}, "type": "Feature", "properties": {"store": "McDonalds-Montgomery,AL", "address": "2750 Taylor Rd, Montgomery,AL, (334) 270-9878"}}, {"geometry": {"type": "Point", "coordinates": [-86.328135, 32.325945]}, "type": "Feature", "properties": {"store": "McDonalds PlayPlace-Montgomery,AL", "address": "I-65 Exit 168 [935 W South Blvd], Montgomery,AL, (334) 281-0635"}}, {"geometry": {"type": "Point", "coordinates": [-86.31857, 32.35173]}, "type": "Feature", "properties": {"store": "McDonalds PlayPlace-Montgomery,AL", "address": "700 W Fairview Ave, Montgomery,AL, (334) 264-8814"}}, {"geometry": {"type": "Point", "coordinates": [-86.27573, 32.38047]}, "type": "Feature", "properties": {"store": "McDonalds PlayPlace-Montgomery,AL", "address": "2212 Madison Ave, Montgomery,AL, (334) 265-3615"}}, {"geometry": {"type": "Point", "coordinates": [-86.26878, 32.36422]}, "type": "Feature", "properties": {"store": "McDonalds PlayPlace-Montgomery,AL", "address": "2681 Zelda Rd, Montgomery,AL, (334) 263-9596"}}, {"geometry": {"type": "Point", "coordinates": [-86.25572, 32.3274]}, "type": "Feature", "properties": {"store": "McDonalds PlayPlace-Montgomery,AL", "address": "2621 E South Blvd, Montgomery,AL, (334) 288-7558"}}, {"geometry": {"type": "Point", "coordinates": [-86.24228, 32.38565]}, "type": "Feature", "properties": {"store": "McDonalds PlayPlace-Montgomery,AL", "address": "2601 Cong W L Dickinson Dr, Montgomery,AL, (334) 260-7975"}}, {"geometry": {"type": "Point", "coordinates": [-86.200234, 32.382614]}, "type": "Feature", "properties": {"store": "McDonalds PlayPlace-Montgomery,AL", "address": "5765 Atlanta Hwy, Montgomery,AL, (334) 277-0151"}}, {"geometry": {"type": "Point", "coordinates": [-86.138343, 32.363074]}, "type": "Feature", "properties": {"store": "McDonalds PlayPlace-Montgomery,AL", "address": "Hwy 80 & I 85, Montgomery,AL, (334) 239-7883"}}, {"geometry": {"type": "Point", "coordinates": [-87.27458, 34.48494]}, "type": "Feature", "properties": {"store": "McDonalds-Moulton,AL", "address": "11698 Al Hwy 157, Moulton,AL, (256) 974-4526"}}, {"geometry": {"type": "Point", "coordinates": [-87.667348, 34.746956]}, "type": "Feature", "properties": {"store": "McDonalds-Muscle Shoals,AL", "address": "1503 Woodward Ave, Muscle Shoals,AL, (256) 381-2211"}}, {"geometry": {"type": "Point", "coordinates": [-87.6125, 33.23556]}, "type": "Feature", "properties": {"store": "McDonalds [WM]-Northport,AL", "address": "5710 McFarland Blvd [WM], Northport,AL, (205) 339-9881"}}, {"geometry": {"type": "Point", "coordinates": [-87.60112, 33.30456]}, "type": "Feature", "properties": {"store": "McDonalds PlayPlace-Northport,AL", "address": "13516 Highway 43 N, Northport,AL, (205) 330-2547"}}, {"geometry": {"type": "Point", "coordinates": [-87.57811, 33.23975]}, "type": "Feature", "properties": {"store": "McDonalds PlayPlace-Northport,AL", "address": "2000 82 Bypass, Northport,AL, (205) 339-8887"}}, {"geometry": {"type": "Point", "coordinates": [-86.47057, 33.94963]}, "type": "Feature", "properties": {"store": "McDonalds PlayPlace-Oneonta,AL", "address": "718 2nd Ave E, Oneonta,AL, (205) 274-8700"}}, {"geometry": {"type": "Point", "coordinates": [-85.42078, 32.6357]}, "type": "Feature", "properties": {"store": "McDonalds [WM]-Opelika,AL", "address": "2900 Pepperell Pky [WM], Opelika,AL, (334) 741-7097"}}, {"geometry": {"type": "Point", "coordinates": [-85.35117, 32.64375]}, "type": "Feature", "properties": {"store": "McDonalds PlayPlace-Opelika,AL", "address": "1104 Columbus Pky, Opelika,AL, (334) 749-5648"}}, {"geometry": {"type": "Point", "coordinates": [-87.582542, 30.291771]}, "type": "Feature", "properties": {"store": "McDonalds-Orange Beach,AL", "address": "4511 Orange Beach, Orange Beach,AL, (251) 974-2663"}}, {"geometry": {"type": "Point", "coordinates": [-86.48201, 34.65738]}, "type": "Feature", "properties": {"store": "McDonalds PlayPlace-Owens Cross Roads,AL", "address": "6711 Hwy 431 S, Owens Cross Roads,AL, (256) 539-1013"}}, {"geometry": {"type": "Point", "coordinates": [-85.64319, 31.45829]}, "type": "Feature", "properties": {"store": "McDonalds PlayPlace-Ozark,AL", "address": "1001 N US Hwy 231, Ozark,AL, (334) 774-4996"}}, {"geometry": {"type": "Point", "coordinates": [-86.78615, 33.33361]}, "type": "Feature", "properties": {"store": "McDonalds PlayPlace-Pelham,AL", "address": "410 Cahaba Valley Rd, Pelham,AL, (205) 988-0882"}}, {"geometry": {"type": "Point", "coordinates": [-86.2826, 33.59367]}, "type": "Feature", "properties": {"store": "McDonalds PlayPlace-Pell City,AL", "address": "600 Martin St N, Pell City,AL, (205) 338-1616"}}, {"geometry": {"type": "Point", "coordinates": [-85.047496, 32.500954]}, "type": "Feature", "properties": {"store": "McDonalds-Phenix City,AL", "address": "3709 Hwy 280/431N, Phenix City,AL, (334) 448-9769"}}, {"geometry": {"type": "Point", "coordinates": [-85.09223, 32.47003]}, "type": "Feature", "properties": {"store": "McDonalds PlayPlace-Phenix City,AL", "address": "3915 Us Highway 80 W, Phenix City,AL, (334) 664-0064"}}, {"geometry": {"type": "Point", "coordinates": [-85.02811, 32.46848]}, "type": "Feature", "properties": {"store": "McDonalds PlayPlace-Phenix City,AL", "address": "1134 280 Byp, Phenix City,AL, (334) 298-2439"}}, {"geometry": {"type": "Point", "coordinates": [-85.02438, 32.48527]}, "type": "Feature", "properties": {"store": "McDonalds PlayPlace-Phenix City,AL", "address": "1801 Stadium Dr, Phenix City,AL, (334) 297-1112"}}, {"geometry": {"type": "Point", "coordinates": [-85.60972, 33.93382]}, "type": "Feature", "properties": {"store": "McDonalds PlayPlace-Piedmont,AL", "address": "111 US Hwy 278 Byp, Piedmont,AL, (256) 447-6363"}}, {"geometry": {"type": "Point", "coordinates": [-86.68362, 33.69569]}, "type": "Feature", "properties": {"store": "McDonalds PlayPlace-Pinson,AL", "address": "6639 Hwy 151, Pinson,AL, (205) 680-4100"}}, {"geometry": {"type": "Point", "coordinates": [-86.41124, 32.45985]}, "type": "Feature", "properties": {"store": "McDonalds [WM]-Prattville,AL", "address": "1903 Cobbs Ford Rd [WM], Prattville,AL, (334) 361-3013"}}, {"geometry": {"type": "Point", "coordinates": [-86.45078, 32.45947]}, "type": "Feature", "properties": {"store": "McDonalds PlayPlace-Prattville,AL", "address": "720 S Memorial Dr, Prattville,AL, (334) 365-0838"}}, {"geometry": {"type": "Point", "coordinates": [-86.39003, 32.46054]}, "type": "Feature", "properties": {"store": "McDonalds PlayPlace-Prattville,AL", "address": "2573 Cobbs Ford Rd, Prattville,AL, (334) 285-4010"}}, {"geometry": {"type": "Point", "coordinates": [-88.111278, 30.745236]}, "type": "Feature", "properties": {"store": "McDonalds-Prichard,AL", "address": "2963 St Stephens Rd, Prichard,AL, (251) 452-4836"}}, {"geometry": {"type": "Point", "coordinates": [-85.84698, 34.49369]}, "type": "Feature", "properties": {"store": "McDonalds PlayPlace-Rainsville,AL", "address": "32 Main St W, Rainsville,AL, (256) 638-1177"}}, {"geometry": {"type": "Point", "coordinates": [-88.13813, 34.43898]}, "type": "Feature", "properties": {"store": "McDonalds-Red Bay,AL", "address": "606 4th Ave Se, Red Bay,AL, (256) 356-2911"}}, {"geometry": {"type": "Point", "coordinates": [-85.35928, 33.15201]}, "type": "Feature", "properties": {"store": "McDonalds PlayPlace-Roanoke,AL", "address": "US 431 and SR 22 Roanoke, Roanoke,AL, (334) 863-4000"}}, {"geometry": {"type": "Point", "coordinates": [-87.293963, 34.823878]}, "type": "Feature", "properties": {"store": "McDonalds PlayPlace-Rogersville,AL", "address": "101 Highway 72 E, Rogersville,AL, (256) 247-3330"}}, {"geometry": {"type": "Point", "coordinates": [-87.71725, 34.51207]}, "type": "Feature", "properties": {"store": "McDonalds PlayPlace-Russellville,AL", "address": "15254 Highway 43, Russellville,AL, (256) 332-6564"}}, {"geometry": {"type": "Point", "coordinates": [-88.1016, 30.80196]}, "type": "Feature", "properties": {"store": "McDonalds [WM]-Saraland,AL", "address": "1095 Industrial Blvd [WM], Saraland,AL, (251) 675-5199"}}, {"geometry": {"type": "Point", "coordinates": [-88.094, 30.8313]}, "type": "Feature", "properties": {"store": "McDonalds PlayPlace-Saraland,AL", "address": "1024 Hwy 43 S, Saraland,AL, (251) 675-2304"}}, {"geometry": {"type": "Point", "coordinates": [-88.04622, 30.87118]}, "type": "Feature", "properties": {"store": "McDonalds-Satsuma,AL", "address": "6103 Hwy 43 N, Satsuma,AL, (251) 679-6709"}}, {"geometry": {"type": "Point", "coordinates": [-86.03152, 34.64844]}, "type": "Feature", "properties": {"store": "McDonalds PlayPlace-Scottsboro,AL", "address": "22943 John T Reid Pkwy, Scottsboro,AL, (256) 259-2660"}}, {"geometry": {"type": "Point", "coordinates": [-87.00344, 32.43169]}, "type": "Feature", "properties": {"store": "McDonalds [WM]-Selma,AL", "address": "1501 Al 14 E [WM], Selma,AL, (334) 874-4496"}}, {"geometry": {"type": "Point", "coordinates": [-87.03222, 32.4311]}, "type": "Feature", "properties": {"store": "McDonalds-Selma,AL", "address": "600 Highland Ave, Selma,AL, (334) 874-9122"}}, {"geometry": {"type": "Point", "coordinates": [-85.18279, 32.8458]}, "type": "Feature", "properties": {"store": "McDonalds PlayPlace-Shawmut,AL", "address": "2920 20th Ave, Shawmut,AL, (334) 768-2525"}}, {"geometry": {"type": "Point", "coordinates": [-87.69885, 34.75619]}, "type": "Feature", "properties": {"store": "McDonalds PlayPlace-Sheffield,AL", "address": "324 S Montgomery Ave, Sheffield,AL, (256) 381-3330"}}, {"geometry": {"type": "Point", "coordinates": [-87.66927, 34.77402]}, "type": "Feature", "properties": {"store": "McDonalds PlayPlace-Sheffield,AL", "address": "4201 N Jackson Hwy, Sheffield,AL, (256) 383-2726"}}, {"geometry": {"type": "Point", "coordinates": [-86.02252, 33.92335]}, "type": "Feature", "properties": {"store": "McDonalds PlayPlace-Southside,AL", "address": "2070 Highway 77, Southside,AL, (256) 442-2811"}}, {"geometry": {"type": "Point", "coordinates": [-86.46727, 33.76907]}, "type": "Feature", "properties": {"store": "McDonalds PlayPlace-Springville,AL", "address": "431 Marietta Rd, Springville,AL, (205) 467-2054"}}, {"geometry": {"type": "Point", "coordinates": [-85.81239, 34.87397]}, "type": "Feature", "properties": {"store": "McDonalds PlayPlace-Stevenson,AL", "address": "43151 Us 72, Stevenson,AL, (256) 437-3148"}}, {"geometry": {"type": "Point", "coordinates": [-86.26096, 33.16719]}, "type": "Feature", "properties": {"store": "McDonalds PlayPlace-Sylacauga,AL", "address": "701 W Fort Williams St, Sylacauga,AL, (256) 249-4611"}}, {"geometry": {"type": "Point", "coordinates": [-86.08315, 33.44059]}, "type": "Feature", "properties": {"store": "McDonalds PlayPlace-Talladega,AL", "address": "110 Haynes St, Talladega,AL, (256) 362-2448"}}, {"geometry": {"type": "Point", "coordinates": [-85.89887, 32.53743]}, "type": "Feature", "properties": {"store": "McDonalds PlayPlace-Tallassee,AL", "address": "14 Gilmer Ave, Tallassee,AL, (334) 283-3991"}}, {"geometry": {"type": "Point", "coordinates": [-86.765614, 33.58955]}, "type": "Feature", "properties": {"store": "McDonalds-Tarrant City,AL", "address": "2116 Pinson Valley Pkwy, Tarrant City,AL, (205) 849-5577"}}, {"geometry": {"type": "Point", "coordinates": [-88.20669, 30.56057]}, "type": "Feature", "properties": {"store": "McDonalds-Theodore,AL", "address": "7040 Theodore Dawes Rd, Theodore,AL, (251) 653-7099"}}, {"geometry": {"type": "Point", "coordinates": [-88.17144, 30.55352]}, "type": "Feature", "properties": {"store": "McDonalds-Theodore,AL", "address": "5827 Hwy 90 W, Theodore,AL, (251) 653-5225"}}, {"geometry": {"type": "Point", "coordinates": [-87.73956, 31.925786]}, "type": "Feature", "properties": {"store": "McDonalds PlayPlace-Thomasville,AL", "address": "33311 Hwy 43, Thomasville,AL, (334) 636-9788"}}, {"geometry": {"type": "Point", "coordinates": [-88.169685, 30.590847]}, "type": "Feature", "properties": {"store": "McDonalds PlayPlace-Tillmans Corner,AL", "address": "5424 Hwy 90 W, Tillmans Corner,AL, (251) 666-0261"}}, {"geometry": {"type": "Point", "coordinates": [-85.9444, 31.8317]}, "type": "Feature", "properties": {"store": "McDonalds PlayPlace-Troy,AL", "address": "1126 Hwy 231 S, Troy,AL, (334) 566-5874"}}, {"geometry": {"type": "Point", "coordinates": [-86.61395, 33.63958]}, "type": "Feature", "properties": {"store": "McDonalds PlayPlace-Trussville,AL", "address": "1111 N Chalkville Rd, Trussville,AL, (205) 655-2334"}}, {"geometry": {"type": "Point", "coordinates": [-86.647866, 33.596696]}, "type": "Feature", "properties": {"store": "McDonalds PlayPlace-Trussville,AL", "address": "1960 Edwards Lake Rd, Trussville,AL, (205) 661-9282"}}, {"geometry": {"type": "Point", "coordinates": [-87.56724, 33.20285]}, "type": "Feature", "properties": {"store": "McDonalds-Tuscaloosa,AL", "address": "2502 12th St, Tuscaloosa,AL, (205) 752-4813"}}, {"geometry": {"type": "Point", "coordinates": [-87.515697, 33.261758]}, "type": "Feature", "properties": {"store": "McDonalds-Tuscaloosa,AL", "address": "4840 Rice Mine RD NE, Tuscaloosa,AL, (205) 345-0045"}}, {"geometry": {"type": "Point", "coordinates": [-87.54405, 33.14672]}, "type": "Feature", "properties": {"store": "McDonalds PlayPlace-Tuscaloosa,AL", "address": "6701 Al Hwy 69 S, Tuscaloosa,AL, (205) 349-5371"}}, {"geometry": {"type": "Point", "coordinates": [-87.52987, 33.1974]}, "type": "Feature", "properties": {"store": "McDonalds PlayPlace-Tuscaloosa,AL", "address": "517 15th St E, Tuscaloosa,AL, (205) 759-4561"}}, {"geometry": {"type": "Point", "coordinates": [-87.52538, 33.1652]}, "type": "Feature", "properties": {"store": "McDonalds PlayPlace-Tuscaloosa,AL", "address": "4711 Mcfarland Blvd E, Tuscaloosa,AL, (205) 752-1212"}}, {"geometry": {"type": "Point", "coordinates": [-87.47939, 33.19747]}, "type": "Feature", "properties": {"store": "McDonalds PlayPlace-Tuscaloosa,AL", "address": "4222 University Blvd E, Tuscaloosa,AL, (205) 553-8030"}}, {"geometry": {"type": "Point", "coordinates": [-87.66851, 34.71275]}, "type": "Feature", "properties": {"store": "McDonalds-Tuscumbia,AL", "address": "State Hwy 43 South 157/72, Tuscumbia,AL, (256) 314-1411"}}, {"geometry": {"type": "Point", "coordinates": [-85.69357, 32.42171]}, "type": "Feature", "properties": {"store": "McDonalds PlayPlace-Tuskegee,AL", "address": "401 W Martin Luther King Hwy, Tuskegee,AL, (334) 727-7157"}}, {"geometry": {"type": "Point", "coordinates": [-85.71324, 32.14625]}, "type": "Feature", "properties": {"store": "McDonalds PlayPlace-Union Springs,AL", "address": "201 Conecuh Ave E, Union Springs,AL, (334) 738-5811"}}, {"geometry": {"type": "Point", "coordinates": [-88.10976, 33.75378]}, "type": "Feature", "properties": {"store": "McDonalds-Vernon,AL", "address": "44345 Highway 17, Vernon,AL, (205) 695-0752"}}, {"geometry": {"type": "Point", "coordinates": [-86.790416, 33.446224]}, "type": "Feature", "properties": {"store": "McDonalds PlayPlace-Vestavia Hills,AL", "address": "707 Montgomery Hwy, Vestavia Hills,AL, (205) 979-1132"}}, {"geometry": {"type": "Point", "coordinates": [-86.762516, 33.411134]}, "type": "Feature", "properties": {"store": "McDonalds PlayPlace-Vestavia Hills,AL", "address": "2427 Acton Rd, Vestavia Hills,AL, (205) 979-8001"}}, {"geometry": {"type": "Point", "coordinates": [-86.81589, 33.80902]}, "type": "Feature", "properties": {"store": "McDonalds PlayPlace-Warrior,AL", "address": "100 Cane Creek Rd, Warrior,AL, (205) 590-1183"}}, {"geometry": {"type": "Point", "coordinates": [-86.21432, 32.50744]}, "type": "Feature", "properties": {"store": "McDonalds [WM]-Wetumpka,AL", "address": "4538 Us 231 [WM], Wetumpka,AL, (334) 514-8494"}}, {"geometry": {"type": "Point", "coordinates": [-86.21014, 32.52014]}, "type": "Feature", "properties": {"store": "McDonalds PlayPlace-Wetumpka,AL", "address": "5426 Us 231, Wetumpka,AL, (334) 567-7732"}}, {"geometry": {"type": "Point", "coordinates": [-87.83599, 33.935913]}, "type": "Feature", "properties": {"store": "McDonalds PlayPlace-Winfield,AL", "address": "US Hwy 78 West, Winfield,AL, (205) 487-3110"}}, {"geometry": {"type": "Point", "coordinates": [-85.83459, 33.60032]}, "type": "Feature", "properties": {"store": "McDonalds [WM]-Oxford,AL", "address": "92 Plaza Lane [WM],Oxford,AL, (256) 835-7912"}}, {"geometry": {"type": "Point", "coordinates": [-85.82799, 33.60845]}, "type": "Feature", "properties": {"store": "McDonalds-Oxford,AL", "address": "1015 Hwy 21 S,Oxford,AL, (256) 831-7561"}}, {"geometry": {"type": "Point", "coordinates": [-94.22633, 35.48645]}, "type": "Feature", "properties": {"store": "McDonalds-Alma,AR", "address": "247 Highway 71 N, Alma,AR, (479) 632-5284"}}, {"geometry": {"type": "Point", "coordinates": [-93.09505, 34.11786]}, "type": "Feature", "properties": {"store": "McDonalds-Arkadelphia,AR", "address": "3114 Pine St, Arkadelphia,AR, (870) 246-2443"}}, {"geometry": {"type": "Point", "coordinates": [-91.591209, 36.24525]}, "type": "Feature", "properties": {"store": "McDonalds [WM]-Ash Flat,AR", "address": "Hwy 62/412 [WM], Ash Flat,AR, (870) 994-7818"}}, {"geometry": {"type": "Point", "coordinates": [-94.116302, 33.6591]}, "type": "Feature", "properties": {"store": "McDonalds-Ashdown,AR", "address": "1260 S Constitution Ave, Ashdown,AR, (870) 898-2357"}}, {"geometry": {"type": "Point", "coordinates": [-92.937337, 35.254401]}, "type": "Feature", "properties": {"store": "McDonalds-Atkins,AR", "address": "1202 N Church St, Atkins,AR, (479) 641-1177"}}, {"geometry": {"type": "Point", "coordinates": [-91.482521, 35.386616]}, "type": "Feature", "properties": {"store": "McDonalds-Bald Knob,AR", "address": "3715 Hwy 367 N, Bald Knob,AR, (501) 724-9942"}}, {"geometry": {"type": "Point", "coordinates": [-91.64087, 35.76808]}, "type": "Feature", "properties": {"store": "McDonalds PlayPlace-Batesville,AR", "address": "1220 S Saint Louis St, Batesville,AR, (870) 793-1130"}}, {"geometry": {"type": "Point", "coordinates": [-91.90863, 35.06852]}, "type": "Feature", "properties": {"store": "McDonalds-Beebe,AR", "address": "2415 W Center St, Beebe,AR, (501) 882-2323"}}, {"geometry": {"type": "Point", "coordinates": [-92.634291, 34.540344]}, "type": "Feature", "properties": {"store": "McDonalds-Benton,AR", "address": "4720 Hwy 67, Benton,AR, (501) 860-7831"}}, {"geometry": {"type": "Point", "coordinates": [-92.535279, 34.60574]}, "type": "Feature", "properties": {"store": "McDonalds-Benton,AR", "address": "20726 Interstate 30, Benton,AR, (501) 794-1097"}}, {"geometry": {"type": "Point", "coordinates": [-92.58112, 34.57289]}, "type": "Feature", "properties": {"store": "McDonalds PlayPlace-Benton,AR", "address": "1023 Military Rd, Benton,AR, (501) 315-1140"}}, {"geometry": {"type": "Point", "coordinates": [-94.209686, 36.372311]}, "type": "Feature", "properties": {"store": "McDonalds [WM]-Bentonville,AR", "address": "406 S Walton [WM], Bentonville,AR, (479) 273-1040"}}, {"geometry": {"type": "Point", "coordinates": [-94.178879, 36.360226]}, "type": "Feature", "properties": {"store": "McDonalds-Bentonville,AR", "address": "1401 Phyllis St, Bentonville,AR, (479) 271-0088"}}, {"geometry": {"type": "Point", "coordinates": [-94.181297, 36.385799]}, "type": "Feature", "properties": {"store": "McDonalds-Bentonville,AR", "address": "3805 US 71 Hwy, Bentonville,AR, (479) 254-1118"}}, {"geometry": {"type": "Point", "coordinates": [-94.22139, 36.371571]}, "type": "Feature", "properties": {"store": "McDonalds PlayPlace-Bentonville,AR", "address": "201 S Walton Blvd, Bentonville,AR, (501) 273-7705"}}, {"geometry": {"type": "Point", "coordinates": [-93.585312, 36.377747]}, "type": "Feature", "properties": {"store": "McDonalds PlayPlace-Berryville,AR", "address": "1002 W Trimble, Berryville,AR, (870) 423-5353"}}, {"geometry": {"type": "Point", "coordinates": [-89.91856, 35.88944]}, "type": "Feature", "properties": {"store": "McDonalds-Blytheville,AR", "address": "3600 S Division St, Blytheville,AR, (870) 776-1307"}}, {"geometry": {"type": "Point", "coordinates": [-89.89307, 35.92726]}, "type": "Feature", "properties": {"store": "McDonalds PlayPlace-Blytheville,AR", "address": "1031 E Main St, Blytheville,AR, (870) 763-3424"}}, {"geometry": {"type": "Point", "coordinates": [-93.92033, 35.13994]}, "type": "Feature", "properties": {"store": "McDonalds-Booneville,AR", "address": "110 E Main St, Booneville,AR, (479) 675-9265"}}, {"geometry": {"type": "Point", "coordinates": [-91.19778, 34.90603]}, "type": "Feature", "properties": {"store": "McDonalds PlayPlace-Brinkley,AR", "address": "1500 N Hwy 17, Brinkley,AR, (870) 734-1410"}}, {"geometry": {"type": "Point", "coordinates": [-92.4978, 34.61373]}, "type": "Feature", "properties": {"store": "McDonalds PlayPlace-Bryant,AR", "address": "2214 N Reynolds Rd, Bryant,AR, (501) 847-5367"}}, {"geometry": {"type": "Point", "coordinates": [-91.95943, 34.93753]}, "type": "Feature", "properties": {"store": "McDonalds-Cabot,AR", "address": "3195 Bill Foster Memorial Hwy, Cabot,AR, (501) 843-5111"}}, {"geometry": {"type": "Point", "coordinates": [-92.037395, 34.97801]}, "type": "Feature", "properties": {"store": "McDonalds-Cabot,AR", "address": "304 S Rockwood Drive, Cabot,AR, (501) 941-0152"}}, {"geometry": {"type": "Point", "coordinates": [-92.02502, 34.97602]}, "type": "Feature", "properties": {"store": "McDonalds PlayPlace-Cabot,AR", "address": "1001 W Main St, Cabot,AR, (501) 843-5559"}}, {"geometry": {"type": "Point", "coordinates": [-93.070751, 34.182907]}, "type": "Feature", "properties": {"store": "McDonalds-Caddo Valley,AR", "address": "145 Valley St, Caddo Valley,AR, (870) 246-7449"}}, {"geometry": {"type": "Point", "coordinates": [-93.00694, 33.5303]}, "type": "Feature", "properties": {"store": "McDonalds PlayPlace-Camden,AR", "address": "1290 St Hwy 4 Spur, Camden,AR, (870) 836-6666"}}, {"geometry": {"type": "Point", "coordinates": [-94.284798, 36.358307]}, "type": "Feature", "properties": {"store": "McDonalds-Centerton,AR", "address": "101 E Centerton Blvd, Centerton,AR, (479) 795-8333"}}, {"geometry": {"type": "Point", "coordinates": [-93.46539, 35.45263]}, "type": "Feature", "properties": {"store": "McDonalds PlayPlace-Clarksville,AR", "address": "1232 S Rogers St, Clarksville,AR, (479) 754-6369"}}, {"geometry": {"type": "Point", "coordinates": [-92.45454, 35.59082]}, "type": "Feature", "properties": {"store": "McDonalds-Clinton,AR", "address": "Highway 65 N, Clinton,AR, (501) 745-6600"}}, {"geometry": {"type": "Point", "coordinates": [-92.43993, 35.11023]}, "type": "Feature", "properties": {"store": "McDonalds [WM]-Conway,AR", "address": "1155 Us 65 N [WM], Conway,AR, (501) 329-8679"}}, {"geometry": {"type": "Point", "coordinates": [-92.47173, 35.08786]}, "type": "Feature", "properties": {"store": "McDonalds-Conway,AR", "address": "705 Salem Rd, Conway,AR, (501) 327-0444"}}, {"geometry": {"type": "Point", "coordinates": [-92.43235, 35.11232]}, "type": "Feature", "properties": {"store": "McDonalds-Conway,AR", "address": "450 Highway 65 N, Conway,AR, (501) 329-4040"}}, {"geometry": {"type": "Point", "coordinates": [-92.42674, 35.09174]}, "type": "Feature", "properties": {"store": "McDonalds-Conway,AR", "address": "220 E Oak St, Conway,AR, (501) 327-2117"}}, {"geometry": {"type": "Point", "coordinates": [-92.440206, 35.06713]}, "type": "Feature", "properties": {"store": "McDonalds-Conway,AR", "address": "1444 Dave Ward Drive, Conway,AR, (501) 327-9000"}}, {"geometry": {"type": "Point", "coordinates": [-95.229729, 40.143898]}, "type": "Feature", "properties": {"store": "McDonalds-Corning,AR", "address": "201 N Missouri Ave, Corning,AR, (870) 857-3050"}}, {"geometry": {"type": "Point", "coordinates": [-91.96265, 33.11759]}, "type": "Feature", "properties": {"store": "McDonalds PlayPlace-Crossett,AR", "address": "105 Unity Rd, Crossett,AR, (870) 364-9600"}}, {"geometry": {"type": "Point", "coordinates": [-93.16257, 35.22115]}, "type": "Feature", "properties": {"store": "McDonalds-Dardanelle,AR", "address": "611 Union St, Dardanelle,AR, (479) 229-9804"}}, {"geometry": {"type": "Point", "coordinates": [-94.327759, 34.04538]}, "type": "Feature", "properties": {"store": "McDonalds PlayPlace-De Queen,AR", "address": "606 E Collin Raye Dr, De Queen,AR, (870) 642-2700"}}, {"geometry": {"type": "Point", "coordinates": [-91.48338, 33.88354]}, "type": "Feature", "properties": {"store": "McDonalds-Dumas,AR", "address": "601 Highway 65 S, Dumas,AR, (870) 382-2800"}}, {"geometry": {"type": "Point", "coordinates": [-92.68691, 33.20656]}, "type": "Feature", "properties": {"store": "McDonalds-El Dorado,AR", "address": "501 S Timberlane Dr, El Dorado,AR, (870) 863-8550"}}, {"geometry": {"type": "Point", "coordinates": [-92.66579, 33.22919]}, "type": "Feature", "properties": {"store": "McDonalds PlayPlace-El Dorado,AR", "address": "1730 Northwest Ave, El Dorado,AR, (870) 862-4012"}}, {"geometry": {"type": "Point", "coordinates": [-92.08951, 35.10975]}, "type": "Feature", "properties": {"store": "McDonalds-El Paso,AR", "address": "1820 Highway 64 W, El Paso,AR, (501) 796-4800"}}, {"geometry": {"type": "Point", "coordinates": [-93.734093, 36.38789]}, "type": "Feature", "properties": {"store": "McDonalds-Eureka Springs,AR", "address": "US Hwy 62 East, Eureka Springs,AR, (479) 253-6106"}}, {"geometry": {"type": "Point", "coordinates": [-94.24995, 36.04114]}, "type": "Feature", "properties": {"store": "McDonalds-Farmington,AR", "address": "207 W Main St, Farmington,AR, (479) 267-6555"}}, {"geometry": {"type": "Point", "coordinates": [-94.2012, 36.05202]}, "type": "Feature", "properties": {"store": "McDonalds [WM]-Fayetteville,AR", "address": "2875 W 6th St [WM], Fayetteville,AR, (479) 587-0101"}}, {"geometry": {"type": "Point", "coordinates": [-94.20282, 36.07845]}, "type": "Feature", "properties": {"store": "McDonalds-Fayetteville,AR", "address": "3080 W Wedington Dr, Fayetteville,AR, (479) 442-7774"}}, {"geometry": {"type": "Point", "coordinates": [-94.157914, 36.063205]}, "type": "Feature", "properties": {"store": "McDonalds-Fayetteville,AR", "address": "1963 W MLK Blvd, Fayetteville,AR, (479) 443-4777"}}, {"geometry": {"type": "Point", "coordinates": [-94.15605, 36.08325]}, "type": "Feature", "properties": {"store": "McDonalds-Fayetteville,AR", "address": "1641 N College Ave, Fayetteville,AR, (479) 521-1767"}}, {"geometry": {"type": "Point", "coordinates": [-94.12115, 36.08624]}, "type": "Feature", "properties": {"store": "McDonalds-Fayetteville,AR", "address": "1870 N Crossover Rd, Fayetteville,AR, (479) 527-9919"}}, {"geometry": {"type": "Point", "coordinates": [-94.198419, 35.997284]}, "type": "Feature", "properties": {"store": "McDonalds-Fayetteville,AR", "address": "1200 W Wilson Ste 2, Fayetteville,AR, (479) 444-1964"}}, {"geometry": {"type": "Point", "coordinates": [-94.148369, 36.123776]}, "type": "Feature", "properties": {"store": "McDonalds PlayPlace-Fayetteville,AR", "address": "578 E Joyce Blvd, Fayetteville,AR, (479) 442-0444"}}, {"geometry": {"type": "Point", "coordinates": [-92.43734, 33.8212]}, "type": "Feature", "properties": {"store": "McDonalds [WM]-Fordyce,AR", "address": "Highway 79 & Upton Rd [WM], Fordyce,AR, (870) 352-7926"}}, {"geometry": {"type": "Point", "coordinates": [-90.78996, 35.03316]}, "type": "Feature", "properties": {"store": "McDonalds PlayPlace-Forrest City,AR", "address": "2301 N Washington St, Forrest City,AR, (870) 633-4146"}}, {"geometry": {"type": "Point", "coordinates": [-94.339116, 35.348969]}, "type": "Feature", "properties": {"store": "McDonalds [WM]-Fort Smith,AR", "address": "8301 Rogers Ave [WM], Fort Smith,AR, (479) 452-1740"}}, {"geometry": {"type": "Point", "coordinates": [-94.407591, 35.328846]}, "type": "Feature", "properties": {"store": "McDonalds [WM]-Fort Smith,AR", "address": "2425 Zero St [WM], Fort Smith,AR, (479) 646-7047"}}, {"geometry": {"type": "Point", "coordinates": [-94.4228, 35.3381]}, "type": "Feature", "properties": {"store": "McDonalds-Fort Smith,AR", "address": "4800 Towson Ave, Fort Smith,AR, (479) 646-7911"}}, {"geometry": {"type": "Point", "coordinates": [-94.40405, 35.38618]}, "type": "Feature", "properties": {"store": "McDonalds-Fort Smith,AR", "address": "2221 Grand Ave, Fort Smith,AR, (479) 785-0726"}}, {"geometry": {"type": "Point", "coordinates": [-94.36816, 35.36109]}, "type": "Feature", "properties": {"store": "McDonalds-Fort Smith,AR", "address": "5821 Rogers Ave, Fort Smith,AR, (479) 452-5500"}}, {"geometry": {"type": "Point", "coordinates": [-94.368739, 35.403432]}, "type": "Feature", "properties": {"store": "McDonalds-Fort Smith,AR", "address": "5712 Kelley Hwy, Fort Smith,AR, (479) 709-9107"}}, {"geometry": {"type": "Point", "coordinates": [-94.3878, 35.29605]}, "type": "Feature", "properties": {"store": "McDonalds PlayPlace-Fort Smith,AR", "address": "9200 Highway 71 S, Fort Smith,AR, (479) 648-3939"}}, {"geometry": {"type": "Point", "coordinates": [-94.338581, 35.347649]}, "type": "Feature", "properties": {"store": "McDonalds PlayPlace-Fort Smith,AR", "address": "8311 Rogers Ave, Fort Smith,AR, (479) 452-1204"}}, {"geometry": {"type": "Point", "coordinates": [-92.47994, 36.28798]}, "type": "Feature", "properties": {"store": "McDonalds-Gassville,AR", "address": "7403 Highway 62 W, Gassville,AR, (870) 435-6880"}}, {"geometry": {"type": "Point", "coordinates": [-92.38824, 35.22825]}, "type": "Feature", "properties": {"store": "McDonalds-Greenbrier,AR", "address": "55 S Broadview St, Greenbrier,AR, (501) 679-7499"}}, {"geometry": {"type": "Point", "coordinates": [-94.27125, 35.21722]}, "type": "Feature", "properties": {"store": "McDonalds PlayPlace-Greenwood,AR", "address": "951 W Center St, Greenwood,AR, (479) 996-4544"}}, {"geometry": {"type": "Point", "coordinates": [-91.486888, 36.317788]}, "type": "Feature", "properties": {"store": "McDonalds-Hardy,AR", "address": "Junction Hwy 62 & 63, Hardy,AR, (870) 856-3377"}}, {"geometry": {"type": "Point", "coordinates": [-93.183299, 36.29429]}, "type": "Feature", "properties": {"store": "McDonalds [WM]-Harrison,AR", "address": "1417 Hwy 62/65 N [WM], Harrison,AR, (870) 741-5266"}}, {"geometry": {"type": "Point", "coordinates": [-93.116241, 36.245126]}, "type": "Feature", "properties": {"store": "McDonalds PlayPlace-Harrison,AR", "address": "1314 N Main, Harrison,AR, (870) 741-5353"}}, {"geometry": {"type": "Point", "coordinates": [-92.02916, 35.50835]}, "type": "Feature", "properties": {"store": "McDonalds-Heber Springs,AR", "address": "1611 Highway 25 N, Heber Springs,AR, (501) 362-3275"}}, {"geometry": {"type": "Point", "coordinates": [-93.610449, 33.682256]}, "type": "Feature", "properties": {"store": "McDonalds-Hope,AR", "address": "1509 N Hervey, Hope,AR, (870) 777-1928"}}, {"geometry": {"type": "Point", "coordinates": [-93.08186, 34.49344]}, "type": "Feature", "properties": {"store": "McDonalds-Hot Springs,AR", "address": "1214 Albert Pike Hwy, Hot Springs,AR, (501) 321-9663"}}, {"geometry": {"type": "Point", "coordinates": [-93.05964, 34.47751]}, "type": "Feature", "properties": {"store": "McDonalds-Hot Springs,AR", "address": "3229 Central Ave, Hot Springs,AR, (501) 623-6212"}}, {"geometry": {"type": "Point", "coordinates": [-93.07517, 34.45182]}, "type": "Feature", "properties": {"store": "McDonalds-Hot Springs,AR", "address": "4395 Central Ave, Hot Springs,AR, (501) 525-6506"}}, {"geometry": {"type": "Point", "coordinates": [-93.04757, 34.50377]}, "type": "Feature", "properties": {"store": "McDonalds-Hot Springs,AR", "address": "200 E Grand Ave, Hot Springs,AR, (501) 625-3579"}}, {"geometry": {"type": "Point", "coordinates": [-93.125019, 34.47262]}, "type": "Feature", "properties": {"store": "McDonalds-Hot Springs,AR", "address": "1713 Airport Rd, Hot Springs,AR, (501) 767-1799"}}, {"geometry": {"type": "Point", "coordinates": [-93.12611, 34.50329]}, "type": "Feature", "properties": {"store": "McDonalds-Hot Springs,AR", "address": "3101 Albert Pike Rd, Hot Springs,AR, (501) 767-8998"}}, {"geometry": {"type": "Point", "coordinates": [-92.10962, 34.88477]}, "type": "Feature", "properties": {"store": "McDonalds [WM]-Jacksonville,AR", "address": "2000 John Harden Dr [WM], Jacksonville,AR, (501) 241-0465"}}, {"geometry": {"type": "Point", "coordinates": [-92.11777, 34.86731]}, "type": "Feature", "properties": {"store": "McDonalds-Jacksonville,AR", "address": "816 W Main St, Jacksonville,AR, (501) 982-6656"}}, {"geometry": {"type": "Point", "coordinates": [-92.10744, 34.885]}, "type": "Feature", "properties": {"store": "McDonalds-Jacksonville,AR", "address": "2030 N 1st St, Jacksonville,AR, (501) 982-4939"}}, {"geometry": {"type": "Point", "coordinates": [-90.68511, 35.82112]}, "type": "Feature", "properties": {"store": "McDonalds [WM]-Jonesboro,AR", "address": "1815 E Highland Dr [WM], Jonesboro,AR, (870) 930-9557"}}, {"geometry": {"type": "Point", "coordinates": [-90.7055, 35.82126]}, "type": "Feature", "properties": {"store": "McDonalds-Jonesboro,AR", "address": "111 E Highland Dr, Jonesboro,AR, (870) 932-7090"}}, {"geometry": {"type": "Point", "coordinates": [-90.68061, 35.84588]}, "type": "Feature", "properties": {"store": "McDonalds-Jonesboro,AR", "address": "1910 E Johnson Ave, Jonesboro,AR, (870) 972-0922"}}, {"geometry": {"type": "Point", "coordinates": [-90.67923, 35.82836]}, "type": "Feature", "properties": {"store": "McDonalds-Jonesboro,AR", "address": "2207 E Nettleton Ave, Jonesboro,AR, (870) 935-0910"}}, {"geometry": {"type": "Point", "coordinates": [-91.31168, 33.39476]}, "type": "Feature", "properties": {"store": "McDonalds PlayPlace-Lake Village,AR", "address": "1014 N Highway 65, Lake Village,AR, (870) 265-4000"}}, {"geometry": {"type": "Point", "coordinates": [-92.48482, 34.81078]}, "type": "Feature", "properties": {"store": "McDonalds-Little Rock,AR", "address": "19301 Cantrell Rd, Little Rock,AR, (501) 868-7693"}}, {"geometry": {"type": "Point", "coordinates": [-92.38757, 34.76652]}, "type": "Feature", "properties": {"store": "McDonalds-Little Rock,AR", "address": "10201 N Rodney Parham Rd, Little Rock,AR, (501) 227-7914"}}, {"geometry": {"type": "Point", "coordinates": [-92.37667, 34.67022]}, "type": "Feature", "properties": {"store": "McDonalds-Little Rock,AR", "address": "8820 Baseline Rd, Little Rock,AR, (501) 565-7003"}}, {"geometry": {"type": "Point", "coordinates": [-92.3603, 34.77316]}, "type": "Feature", "properties": {"store": "McDonalds-Little Rock,AR", "address": "7721 Cantrell Rd, Little Rock,AR, (501) 225-3670"}}, {"geometry": {"type": "Point", "coordinates": [-92.35436, 34.742]}, "type": "Feature", "properties": {"store": "McDonalds-Little Rock,AR", "address": "7200 W 12th St, Little Rock,AR, (501) 663-4873"}}, {"geometry": {"type": "Point", "coordinates": [-92.34372, 34.6778]}, "type": "Feature", "properties": {"store": "McDonalds-Little Rock,AR", "address": "8011 Geyer Springs Rd, Little Rock,AR, (501) 565-4550"}}, {"geometry": {"type": "Point", "coordinates": [-92.34242, 34.71515]}, "type": "Feature", "properties": {"store": "McDonalds-Little Rock,AR", "address": "4111 S University Ave, Little Rock,AR, (501) 565-0470"}}, {"geometry": {"type": "Point", "coordinates": [-92.27617, 34.74266]}, "type": "Feature", "properties": {"store": "McDonalds-Little Rock,AR", "address": "701 Broadway St, Little Rock,AR, (501) 372-2661"}}, {"geometry": {"type": "Point", "coordinates": [-92.18943, 34.7188]}, "type": "Feature", "properties": {"store": "McDonalds-Little Rock,AR", "address": "8710 Fourche Dam Pike, Little Rock,AR, (501) 490-8669"}}, {"geometry": {"type": "Point", "coordinates": [-92.412039, 34.65621]}, "type": "Feature", "properties": {"store": "McDonalds-Little Rock,AR", "address": "1501 Otter Creek Rd, Little Rock,AR, (501) 407-9124"}}, {"geometry": {"type": "Point", "coordinates": [-92.40423, 34.75416]}, "type": "Feature", "properties": {"store": "McDonalds PlayPlace-Little Rock,AR", "address": "11500 W Markham St, Little Rock,AR, (501) 223-2060"}}, {"geometry": {"type": "Point", "coordinates": [-91.889544, 34.800512]}, "type": "Feature", "properties": {"store": "McDonalds-Lonoke,AR", "address": "1834 Highway 31 N, Lonoke,AR, (501) 676-5160"}}, {"geometry": {"type": "Point", "coordinates": [-94.145798, 36.254234]}, "type": "Feature", "properties": {"store": "McDonalds-Lowell,AR", "address": "503 W Monroe, Lowell,AR, (479) 770-3300"}}, {"geometry": {"type": "Point", "coordinates": [-93.225484, 33.266655]}, "type": "Feature", "properties": {"store": "McDonalds PlayPlace-Magnolia,AR", "address": "1127 East Main St, Magnolia,AR, (870) 234-7782"}}, {"geometry": {"type": "Point", "coordinates": [-92.829578, 34.392598]}, "type": "Feature", "properties": {"store": "McDonalds-Malvern,AR", "address": "1920 Martin Luther King Blvd, Malvern,AR, (501) 467-8787"}}, {"geometry": {"type": "Point", "coordinates": [-92.80974, 34.36329]}, "type": "Feature", "properties": {"store": "McDonalds PlayPlace-Malvern,AR", "address": "307 E Page Ave, Malvern,AR, (501) 332-3100"}}, {"geometry": {"type": "Point", "coordinates": [-90.206667, 35.213298]}, "type": "Feature", "properties": {"store": "McDonalds-Marion,AR", "address": "3440 & I 55 Service Rd, Marion,AR, (870) 739-5346"}}, {"geometry": {"type": "Point", "coordinates": [-90.43253, 35.52808]}, "type": "Feature", "properties": {"store": "McDonalds-Marked Tree,AR", "address": "208 Hester Parker Dr, Marked Tree,AR, (870) 358-2345"}}, {"geometry": {"type": "Point", "coordinates": [-94.2243, 34.5863]}, "type": "Feature", "properties": {"store": "McDonalds PlayPlace-Mena,AR", "address": "709 Highway 71 & 88 N, Mena,AR, (479) 394-1131"}}, {"geometry": {"type": "Point", "coordinates": [-91.80183, 33.635457]}, "type": "Feature", "properties": {"store": "McDonalds-Monticello,AR", "address": "369 Highway 425 n, Monticello,AR, (870) 367-7441"}}, {"geometry": {"type": "Point", "coordinates": [-92.719981, 35.170076]}, "type": "Feature", "properties": {"store": "McDonalds PlayPlace-Morrilton,AR", "address": "1805 N Business 9, Morrilton,AR, (501) 354-1522"}}, {"geometry": {"type": "Point", "coordinates": [-92.34116, 36.35733]}, "type": "Feature", "properties": {"store": "McDonalds [WM]-Mountain Home,AR", "address": "65 Walmart Drive [WM], Mountain Home,AR, (870) 492-4136"}}, {"geometry": {"type": "Point", "coordinates": [-92.36952, 36.35012]}, "type": "Feature", "properties": {"store": "McDonalds-Mountain Home,AR", "address": "1019 Hwy 62 E, Mountain Home,AR, (870) 425-1155"}}, {"geometry": {"type": "Point", "coordinates": [-93.85133, 33.92972]}, "type": "Feature", "properties": {"store": "McDonalds-Nashville,AR", "address": "1512 S 4th St, Nashville,AR, (870) 845-2364"}}, {"geometry": {"type": "Point", "coordinates": [-91.25614, 35.60547]}, "type": "Feature", "properties": {"store": "McDonalds-Newport,AR", "address": "2300 Malcolm Ave, Newport,AR, (870) 523-2424"}}, {"geometry": {"type": "Point", "coordinates": [-92.392814, 34.828785]}, "type": "Feature", "properties": {"store": "McDonalds [WM]-North Little Rock,AR", "address": "12001 Maumelle Blvd & Odom Blvd [WM], North Little Rock,AR, (501) 803-3385"}}, {"geometry": {"type": "Point", "coordinates": [-92.38305, 34.82552]}, "type": "Feature", "properties": {"store": "McDonalds-North Little Rock,AR", "address": "11001 Maumelle Blvd, North Little Rock,AR, (501) 791-7053"}}, {"geometry": {"type": "Point", "coordinates": [-92.26163, 34.75586]}, "type": "Feature", "properties": {"store": "McDonalds-North Little Rock,AR", "address": "600 E Broadway St, North Little Rock,AR, (501) 762-0961"}}, {"geometry": {"type": "Point", "coordinates": [-92.23516, 34.81945]}, "type": "Feature", "properties": {"store": "McDonalds-North Little Rock,AR", "address": "7101 John F Kennedy Blvd, North Little Rock,AR, (501) 834-2393"}}, {"geometry": {"type": "Point", "coordinates": [-92.1997, 34.77575]}, "type": "Feature", "properties": {"store": "McDonalds-North Little Rock,AR", "address": "2400 Old Jacksonville Hwy, North Little Rock,AR, (501) 945-5855"}}, {"geometry": {"type": "Point", "coordinates": [-92.381729, 34.88452]}, "type": "Feature", "properties": {"store": "McDonalds-North Little Rock,AR", "address": "20605 Hwy 365, North Little Rock,AR, (501) 851-2901"}}, {"geometry": {"type": "Point", "coordinates": [-92.2711, 34.79506]}, "type": "Feature", "properties": {"store": "McDonalds PlayPlace-North Little Rock,AR", "address": "4422 Camp Robinson Rd, North Little Rock,AR, (501) 771-4875"}}, {"geometry": {"type": "Point", "coordinates": [-92.22781, 34.79038]}, "type": "Feature", "properties": {"store": "McDonalds PlayPlace-North Little Rock,AR", "address": "4008 Mccain Blvd, North Little Rock,AR, (501) 758-0400"}}, {"geometry": {"type": "Point", "coordinates": [-89.97908, 35.69746]}, "type": "Feature", "properties": {"store": "McDonalds PlayPlace-Osceola,AR", "address": "801 W Keiser Ave, Osceola,AR, (870) 563-3058"}}, {"geometry": {"type": "Point", "coordinates": [-93.82468, 35.50591]}, "type": "Feature", "properties": {"store": "McDonalds-Ozark,AR", "address": "2230 N 3rd St, Ozark,AR, (479) 667-1083"}}, {"geometry": {"type": "Point", "coordinates": [-90.52298, 36.059799]}, "type": "Feature", "properties": {"store": "McDonalds [WM]-Paragould,AR", "address": "2802 W Kings Hwy [WM], Paragould,AR, (870) 236-1128"}}, {"geometry": {"type": "Point", "coordinates": [-90.547229, 36.059807]}, "type": "Feature", "properties": {"store": "McDonalds-Paragould,AR", "address": "4610 W Kingshighway, Paragould,AR, (870) 239-9192"}}, {"geometry": {"type": "Point", "coordinates": [-90.504339, 36.052655]}, "type": "Feature", "properties": {"store": "McDonalds PlayPlace-Paragould,AR", "address": "1407 W Kings Hwy, Paragould,AR, (870) 236-3715"}}, {"geometry": {"type": "Point", "coordinates": [-94.116478, 36.442833]}, "type": "Feature", "properties": {"store": "McDonalds-Pea Ridge,AR", "address": "203 N Curtis Ave, Pea Ridge,AR, (479) 451-2060"}}, {"geometry": {"type": "Point", "coordinates": [-92.003399, 34.223535]}, "type": "Feature", "properties": {"store": "McDonalds [WM]-Pine Bluff,AR", "address": "5501 S Olive St [WM], Pine Bluff,AR, (870) 850-2381"}}, {"geometry": {"type": "Point", "coordinates": [-92.061402, 34.192644]}, "type": "Feature", "properties": {"store": "McDonalds-Pine Bluff,AR", "address": "3610 Camden Rd, Pine Bluff,AR, (870) 879-1257"}}, {"geometry": {"type": "Point", "coordinates": [-92.043431, 34.230191]}, "type": "Feature", "properties": {"store": "McDonalds-Pine Bluff,AR", "address": "107 S Blake St, Pine Bluff,AR, (870) 535-2660"}}, {"geometry": {"type": "Point", "coordinates": [-91.97235, 34.20992]}, "type": "Feature", "properties": {"store": "McDonalds-Pine Bluff,AR", "address": "2908 E Harding Ave, Pine Bluff,AR, (870) 536-1079"}}, {"geometry": {"type": "Point", "coordinates": [-92.006854, 34.201052]}, "type": "Feature", "properties": {"store": "McDonalds-Pine Bluff,AR", "address": "2819 S Olive St, Pine Bluff,AR, (870) 536-2070"}}, {"geometry": {"type": "Point", "coordinates": [-90.962029, 36.250984]}, "type": "Feature", "properties": {"store": "McDonalds-Pocahontas,AR", "address": "1504 Hwy 67 S, Pocahontas,AR, (870) 892-4021"}}, {"geometry": {"type": "Point", "coordinates": [-94.180992, 36.335045]}, "type": "Feature", "properties": {"store": "McDonalds-Rogers,AR", "address": "100 N 46th St, Rogers,AR, (479) 636-7818"}}, {"geometry": {"type": "Point", "coordinates": [-94.116593, 36.355227]}, "type": "Feature", "properties": {"store": "McDonalds-Rogers,AR", "address": "205 W Hudson Rd, Rogers,AR, (479) 631-7363"}}, {"geometry": {"type": "Point", "coordinates": [-94.151428, 36.281303]}, "type": "Feature", "properties": {"store": "McDonalds-Rogers,AR", "address": "4208 Pleasant Crossing Blvd, Rogers,AR, (479) 631-8250"}}, {"geometry": {"type": "Point", "coordinates": [-94.152959, 36.28217]}, "type": "Feature", "properties": {"store": "McDonalds-Rogers,AR", "address": "2601 Pleasant Crossing Dr, Rogers,AR, (479) 986-9991"}}, {"geometry": {"type": "Point", "coordinates": [-94.12724, 36.333703]}, "type": "Feature", "properties": {"store": "McDonalds PlayPlace-Rogers,AR", "address": "903 W Walnut, Rogers,AR, (479) 636-1729"}}, {"geometry": {"type": "Point", "coordinates": [-93.13323, 35.28872]}, "type": "Feature", "properties": {"store": "McDonalds-Russellville,AR", "address": "1122 N Arkansas Ave, Russellville,AR, (501) 968-2292"}}, {"geometry": {"type": "Point", "coordinates": [-93.09361, 35.27895]}, "type": "Feature", "properties": {"store": "McDonalds-Russellville,AR", "address": "Hwy 81 Sr 331, Russellville,AR, (479) 967-8284"}}, {"geometry": {"type": "Point", "coordinates": [-93.106939, 35.27821]}, "type": "Feature", "properties": {"store": "McDonalds-Russellville,AR", "address": "2409 E Main St, Russellville,AR, (479) 967-2627"}}, {"geometry": {"type": "Point", "coordinates": [-91.73637, 35.24403]}, "type": "Feature", "properties": {"store": "McDonalds PlayPlace-Searcy,AR", "address": "600 S Main St, Searcy,AR, (501) 278-4755"}}, {"geometry": {"type": "Point", "coordinates": [-91.69415, 35.25026]}, "type": "Feature", "properties": {"store": "McDonalds PlayPlace-Searcy,AR", "address": "3515 E Race Ave, Searcy,AR, (501) 268-3105"}}, {"geometry": {"type": "Point", "coordinates": [-92.39898, 34.30174]}, "type": "Feature", "properties": {"store": "McDonalds-Sheridan,AR", "address": "1212 S Rock St, Sheridan,AR, (870) 942-0909"}}, {"geometry": {"type": "Point", "coordinates": [-92.18387, 34.82949]}, "type": "Feature", "properties": {"store": "McDonalds-Sherwood,AR", "address": "8400 Warden Rd, Sherwood,AR, (501) 835-6323"}}, {"geometry": {"type": "Point", "coordinates": [-92.209324, 34.832635]}, "type": "Feature", "properties": {"store": "McDonalds-Sherwood,AR", "address": "9053 Hwy 17, Sherwood,AR, (501) 835-6991"}}, {"geometry": {"type": "Point", "coordinates": [-94.513008, 36.181202]}, "type": "Feature", "properties": {"store": "McDonalds [WM]-Siloam Springs,AR", "address": "2901 Hwy 412 E [WM], Siloam Springs,AR, (479) 524-8131"}}, {"geometry": {"type": "Point", "coordinates": [-94.539322, 36.210869]}, "type": "Feature", "properties": {"store": "McDonalds-Siloam Springs,AR", "address": "1400 US Hwy 412, Siloam Springs,AR, (479) 524-8020"}}, {"geometry": {"type": "Point", "coordinates": [-94.143799, 36.167157]}, "type": "Feature", "properties": {"store": "McDonalds [WM]-Springdale,AR", "address": "2004 S Pleasant [WM], Springdale,AR, (479) 756-0990"}}, {"geometry": {"type": "Point", "coordinates": [-94.117003, 36.167041]}, "type": "Feature", "properties": {"store": "McDonalds-Springdale,AR", "address": "1260 E Robinson Ave, Springdale,AR, (479) 750-2226"}}, {"geometry": {"type": "Point", "coordinates": [-94.179803, 36.175394]}, "type": "Feature", "properties": {"store": "McDonalds PlayPlace-Springdale,AR", "address": "4600 W Sunset, Springdale,AR, (479) 751-2401"}}, {"geometry": {"type": "Point", "coordinates": [-94.138921, 36.18048]}, "type": "Feature", "properties": {"store": "McDonalds PlayPlace-Springdale,AR", "address": "520 S Thompson, Springdale,AR, (479) 751-3510"}}, {"geometry": {"type": "Point", "coordinates": [-91.551343, 34.479191]}, "type": "Feature", "properties": {"store": "McDonalds PlayPlace-Stuttgart,AR", "address": "202 E 22nd St, Stuttgart,AR, (870) 673-3411"}}, {"geometry": {"type": "Point", "coordinates": [-94.03714, 33.43022]}, "type": "Feature", "properties": {"store": "McDonalds-Texarkana,AR", "address": "711 E Seventh St, Texarkana,AR, (870) 772-5172"}}, {"geometry": {"type": "Point", "coordinates": [-94.216214, 36.175788]}, "type": "Feature", "properties": {"store": "McDonalds-Tontitown,AR", "address": "1089 E Henri De Tonti Blvd, Tontitown,AR, (479) 361-9499"}}, {"geometry": {"type": "Point", "coordinates": [-90.5282, 35.6418]}, "type": "Feature", "properties": {"store": "McDonalds-Trumann,AR", "address": "817 Hwy 463 N, Trumann,AR, (870) 483-5767"}}, {"geometry": {"type": "Point", "coordinates": [-94.356089, 35.469754]}, "type": "Feature", "properties": {"store": "McDonalds [WM]-Van Buren,AR", "address": "2214 Fayetteville Rd [WM], Van Buren,AR, (479) 471-8181"}}, {"geometry": {"type": "Point", "coordinates": [-94.32697, 35.44315]}, "type": "Feature", "properties": {"store": "McDonalds-Van Buren,AR", "address": "3010 Alma Hwy, Van Buren,AR, (479) 474-0961"}}, {"geometry": {"type": "Point", "coordinates": [-94.35657, 35.46473]}, "type": "Feature", "properties": {"store": "McDonalds PlayPlace-Van Buren,AR", "address": "1903 Fayetteville Rd, Van Buren,AR, (479) 410-4065"}}, {"geometry": {"type": "Point", "coordinates": [-93.990549, 34.929627]}, "type": "Feature", "properties": {"store": "McDonalds-Waldron,AR", "address": "Hwy 71, Waldron,AR, (479) 637-3650"}}, {"geometry": {"type": "Point", "coordinates": [-90.95454, 36.07594]}, "type": "Feature", "properties": {"store": "McDonalds PlayPlace-Walnut Ridge,AR", "address": "800 Highway 67 N, Walnut Ridge,AR, (870) 886-6889"}}, {"geometry": {"type": "Point", "coordinates": [-92.07193, 33.60724]}, "type": "Feature", "properties": {"store": "McDonalds-Warren,AR", "address": "325 S Martin St, Warren,AR, (870) 226-3120"}}, {"geometry": {"type": "Point", "coordinates": [-90.6514, 34.55326]}, "type": "Feature", "properties": {"store": "McDonalds-West Helena,AR", "address": "843 N Sebastian, West Helena,AR, (870) 572-1199"}}, {"geometry": {"type": "Point", "coordinates": [-90.235979, 35.14674]}, "type": "Feature", "properties": {"store": "McDonalds [WM]-West Memphis,AR", "address": "798 W Service Rd [WM], West Memphis,AR, (870) 732-6929"}}, {"geometry": {"type": "Point", "coordinates": [-90.18486, 35.16553]}, "type": "Feature", "properties": {"store": "McDonalds-West Memphis,AR", "address": "1800 N Missouri St Ste 3A, West Memphis,AR, (870) 732-3527"}}, {"geometry": {"type": "Point", "coordinates": [-90.13751, 35.15336]}, "type": "Feature", "properties": {"store": "McDonalds-West Memphis,AR", "address": "3901 Petro Dr, West Memphis,AR, (870) 735-6881"}}, {"geometry": {"type": "Point", "coordinates": [-92.10059, 34.25975]}, "type": "Feature", "properties": {"store": "McDonalds-White Hall,AR", "address": "8012 Sheridan Rd, White Hall,AR, (870) 267-7350"}}, {"geometry": {"type": "Point", "coordinates": [-90.78486, 35.2319]}, "type": "Feature", "properties": {"store": "McDonalds PlayPlace-Wynne,AR", "address": "1470 N Falls Blvd, Wynne,AR, (870) 238-8811"}}, {"geometry": {"type": "Point", "coordinates": [-111.97568, 33.34824]}, "type": "Feature", "properties": {"store": "McDonalds PlayPlace-Ahwatukee,AZ", "address": "10823 S 51st St, Ahwatukee,AZ, (480) 893-9022"}}, {"geometry": {"type": "Point", "coordinates": [-112.13691, 33.865671]}, "type": "Feature", "properties": {"store": "McDonalds PlayPlace-Anthem,AZ", "address": "3623 W Anthem Way, Anthem,AZ, (623) 551-1717"}}, {"geometry": {"type": "Point", "coordinates": [-111.57168, 33.41495]}, "type": "Feature", "properties": {"store": "McDonalds PlayPlace-Apache Junction,AZ", "address": "2383 W Apache Trl, Apache Junction,AZ, (480) 983-1310"}}, {"geometry": {"type": "Point", "coordinates": [-112.33854, 33.46075]}, "type": "Feature", "properties": {"store": "McDonalds [WM]-Avondale,AZ", "address": "13055 W Rancho Santa Fe Blvd [WM], Avondale,AZ, (623) 935-2823"}}, {"geometry": {"type": "Point", "coordinates": [-112.2732, 33.46482]}, "type": "Feature", "properties": {"store": "McDonalds-Avondale,AZ", "address": "9930 W Mcdowell Rd, Avondale,AZ, (623) 478-3925"}}, {"geometry": {"type": "Point", "coordinates": [-112.2898, 33.49139]}, "type": "Feature", "properties": {"store": "McDonalds PlayPlace-Avondale,AZ", "address": "3925 N 107th Ave, Avondale,AZ, (623) 877-6011"}}, {"geometry": {"type": "Point", "coordinates": [-111.822891, 35.236824]}, "type": "Feature", "properties": {"store": "McDonalds-Bellemont,AZ", "address": "12500 I 40 West, Bellemont,AZ, (928) 774-1867"}}, {"geometry": {"type": "Point", "coordinates": [-110.343437, 31.957027]}, "type": "Feature", "properties": {"store": "McDonalds-Benson,AZ", "address": "618 S State Hwy 90, Benson,AZ, (520) 586-7337"}}, {"geometry": {"type": "Point", "coordinates": [-112.556541, 33.437077]}, "type": "Feature", "properties": {"store": "McDonalds [WM]-Buckeye,AZ", "address": "1060 S Watson [WM], Buckeye,AZ, (623) 474-6247"}}, {"geometry": {"type": "Point", "coordinates": [-112.556497, 33.464217]}, "type": "Feature", "properties": {"store": "McDonalds PlayPlace-Buckeye,AZ", "address": "587 South Watson Rd, Buckeye,AZ, (623) 386-2553"}}, {"geometry": {"type": "Point", "coordinates": [-114.578438, 35.125702]}, "type": "Feature", "properties": {"store": "McDonalds-Bullhead City,AZ", "address": "Hwy 95 & Airport Way, Bullhead City,AZ, (928) 754-1699"}}, {"geometry": {"type": "Point", "coordinates": [-114.596901, 35.082714]}, "type": "Feature", "properties": {"store": "McDonalds-Bullhead City,AZ", "address": "2840 Hwy 95, Bullhead City,AZ, (928) 763-8222"}}, {"geometry": {"type": "Point", "coordinates": [-114.597878, 35.106483]}, "type": "Feature", "properties": {"store": "McDonalds PlayPlace-Bullhead City,AZ", "address": "2250 Highway 95, Bullhead City,AZ, (928) 704-4960"}}, {"geometry": {"type": "Point", "coordinates": [-111.87416, 34.56562]}, "type": "Feature", "properties": {"store": "McDonalds-Camp Verde,AZ", "address": "Finnie Flat & I 17, Camp Verde,AZ, (928) 567-4388"}}, {"geometry": {"type": "Point", "coordinates": [-111.71223, 32.87947]}, "type": "Feature", "properties": {"store": "McDonalds [WM]-Casa Grande,AZ", "address": "1741 E Florence Blvd [WM], Casa Grande,AZ, (520) 836-4353"}}, {"geometry": {"type": "Point", "coordinates": [-111.756595, 32.929052]}, "type": "Feature", "properties": {"store": "McDonalds-Casa Grande,AZ", "address": "2824 N Pinal Ave, Casa Grande,AZ, (520) 374-2561"}}, {"geometry": {"type": "Point", "coordinates": [-111.73336, 32.87945]}, "type": "Feature", "properties": {"store": "McDonalds PlayPlace-Casa Grande,AZ", "address": "1249 E Florence Blvd, Casa Grande,AZ, (520) 836-1439"}}, {"geometry": {"type": "Point", "coordinates": [-110.92582, 32.49429]}, "type": "Feature", "properties": {"store": "McDonalds-Catalina,AZ", "address": "15885 N Oracle Rd, Catalina,AZ, (520) 818-1311"}}, {"geometry": {"type": "Point", "coordinates": [-111.794899, 33.279453]}, "type": "Feature", "properties": {"store": "McDonalds-Chandler,AZ", "address": "2750 E Germann Rd [ WM 3360], Chandler,AZ, (480) 782-7548"}}, {"geometry": {"type": "Point", "coordinates": [-111.94365, 33.30555]}, "type": "Feature", "properties": {"store": "McDonalds-Chandler,AZ", "address": "5900 W Chandler Blvd, Chandler,AZ, (480) 961-3050"}}, {"geometry": {"type": "Point", "coordinates": [-111.8414, 33.2889]}, "type": "Feature", "properties": {"store": "McDonalds-Chandler,AZ", "address": "1175 S Arizona Ave, Chandler,AZ, (480) 963-2649"}}, {"geometry": {"type": "Point", "coordinates": [-111.96103, 33.281088]}, "type": "Feature", "properties": {"store": "McDonalds-Chandler,AZ", "address": "6990 W Sundust Rd, Chandler,AZ, (520) 796-2230"}}, {"geometry": {"type": "Point", "coordinates": [-111.84082, 33.302879]}, "type": "Feature", "properties": {"store": "McDonalds-Chandler,AZ", "address": "Chandler Fashion Center, Chandler,AZ, (480) 722-9064"}}, {"geometry": {"type": "Point", "coordinates": [-111.821787, 33.29211]}, "type": "Feature", "properties": {"store": "McDonalds PlayPlace-Chandler,AZ", "address": "1090 E Pecos Rd, Chandler,AZ, (480) 821-5136"}}, {"geometry": {"type": "Point", "coordinates": [-111.875069, 33.335489]}, "type": "Feature", "properties": {"store": "McDonalds PlayPlace-Chandler,AZ", "address": "1900 W Warner Rd, Chandler,AZ, (480) 899-7578"}}, {"geometry": {"type": "Point", "coordinates": [-111.887783, 33.306347]}, "type": "Feature", "properties": {"store": "McDonalds PlayPlace-Chandler,AZ", "address": "2540 W Chandler Blvd, Chandler,AZ, (480) 917-0106"}}, {"geometry": {"type": "Point", "coordinates": [-111.790962, 33.276842]}, "type": "Feature", "properties": {"store": "McDonalds PlayPlace-Chandler,AZ", "address": "2951 E Germann Rd, Chandler,AZ, (480) 726-1578"}}, {"geometry": {"type": "Point", "coordinates": [-111.857936, 33.259629]}, "type": "Feature", "properties": {"store": "McDonalds PlayPlace-Chandler,AZ", "address": "3185 S Alma School, Chandler,AZ, (480) 857-8711"}}, {"geometry": {"type": "Point", "coordinates": [-111.859439, 33.234652]}, "type": "Feature", "properties": {"store": "McDonalds PlayPlace-Chandler,AZ", "address": "4930 S Alma School Rd, Chandler,AZ, (480) 895-5413"}}, {"geometry": {"type": "Point", "coordinates": [-111.842204, 33.320176]}, "type": "Feature", "properties": {"store": "McDonalds PlayPlace-Chandler,AZ", "address": "990 N Arizona Ave, Chandler,AZ, (480) 963-0155"}}, {"geometry": {"type": "Point", "coordinates": [-112.453087, 34.773804]}, "type": "Feature", "properties": {"store": "McDonalds-Chino Valley,AZ", "address": "1948 N Us 89, Chino Valley,AZ, (928) 636-5847"}}, {"geometry": {"type": "Point", "coordinates": [-110.83439, 33.414054]}, "type": "Feature", "properties": {"store": "McDonalds-Claypool,AZ", "address": "100 Ragus Rd, Claypool,AZ, (928) 402-0114"}}, {"geometry": {"type": "Point", "coordinates": [-111.52411, 32.98607]}, "type": "Feature", "properties": {"store": "McDonalds PlayPlace-Coolidge,AZ", "address": "900 N Arizona Blvd, Coolidge,AZ, (520) 723-4063"}}, {"geometry": {"type": "Point", "coordinates": [-111.96698, 34.696159]}, "type": "Feature", "properties": {"store": "McDonalds-Cottonwood,AZ", "address": "NWC 260 & Mesa Dr, Cottonwood,AZ, (928) 634-1422"}}, {"geometry": {"type": "Point", "coordinates": [-112.00185, 34.71927]}, "type": "Feature", "properties": {"store": "McDonalds PlayPlace-Cottonwood,AZ", "address": "1129 S Highway 260, Cottonwood,AZ, (928) 634-9622"}}, {"geometry": {"type": "Point", "coordinates": [-109.552132, 31.34444]}, "type": "Feature", "properties": {"store": "McDonalds [WM]-Douglas,AZ", "address": "5th & Chino [WM], Douglas,AZ, (520) 364-6325"}}, {"geometry": {"type": "Point", "coordinates": [-109.55842, 31.33938]}, "type": "Feature", "properties": {"store": "McDonalds PlayPlace-Douglas,AZ", "address": "104 5th St, Douglas,AZ, (520) 364-8388"}}, {"geometry": {"type": "Point", "coordinates": [-112.341949, 33.60907]}, "type": "Feature", "properties": {"store": "McDonalds-El Mirage,AZ", "address": "Dysart & Thunderbird, El Mirage,AZ, (623) 523-0203"}}, {"geometry": {"type": "Point", "coordinates": [-111.61926, 32.78011]}, "type": "Feature", "properties": {"store": "McDonalds PlayPlace-Eloy,AZ", "address": "3035 N Toltec Rd, Eloy,AZ, (520) 466-7135"}}, {"geometry": {"type": "Point", "coordinates": [-111.62701, 35.19219]}, "type": "Feature", "properties": {"store": "McDonalds-Flagstaff,AZ", "address": "1940 E Butler Ave, Flagstaff,AZ, (928) 779-9509"}}, {"geometry": {"type": "Point", "coordinates": [-111.58, 35.22725]}, "type": "Feature", "properties": {"store": "McDonalds-Flagstaff,AZ", "address": "4930 N US Hwy 89, Flagstaff,AZ, (928) 526-2235"}}, {"geometry": {"type": "Point", "coordinates": [-111.66164, 35.18702]}, "type": "Feature", "properties": {"store": "McDonalds PlayPlace-Flagstaff,AZ", "address": "1401 S Milton Rd, Flagstaff,AZ, (928) 774-9030"}}, {"geometry": {"type": "Point", "coordinates": [-111.387543, 33.038811]}, "type": "Feature", "properties": {"store": "McDonalds-Florence,AZ", "address": "NEC Hwy 80/89 & Diversion Dam Rd, Florence,AZ, (520) 868-8040"}}, {"geometry": {"type": "Point", "coordinates": [-111.485783, 33.063229]}, "type": "Feature", "properties": {"store": "McDonalds PlayPlace-Florence,AZ", "address": "3423 H Hunt Hwy, Florence,AZ, (520) 723-1693"}}, {"geometry": {"type": "Point", "coordinates": [-114.59785, 35.01826]}, "type": "Feature", "properties": {"store": "McDonalds-Fort Mohave,AZ", "address": "4754 Highway 95, Fort Mohave,AZ, (928) 704-1717"}}, {"geometry": {"type": "Point", "coordinates": [-111.71605, 33.5747]}, "type": "Feature", "properties": {"store": "McDonalds PlayPlace-Fountain Hills,AZ", "address": "16936 E Shea Blvd, Fountain Hills,AZ, (480) 837-0033"}}, {"geometry": {"type": "Point", "coordinates": [-112.70753, 32.94912]}, "type": "Feature", "properties": {"store": "McDonalds-Gila Bend,AZ", "address": "800 E Pima St, Gila Bend,AZ, (928) 683-2366"}}, {"geometry": {"type": "Point", "coordinates": [-111.7557, 33.33614]}, "type": "Feature", "properties": {"store": "McDonalds-Gilbert,AZ", "address": "774 S Val Vista Dr Ste B, Gilbert,AZ, (480) 633-2424"}},